[
    {
       "id":1,
       "name":"Boles\u0142awiec",
       "unique_name":"boleslawiec",
       "county_id":1,
       "voivodeship_id":1,
       "latitude":"51.26216915",
       "longitude":"15.55501971",
       "name_locative":"\u015awinouj\u015bciu"
    },
    {
       "id":2,
       "name":"Nowogrodziec",
       "unique_name":"nowogrodziec",
       "county_id":1,
       "voivodeship_id":1,
       "latitude":"51.19713630",
       "longitude":"15.39870460",
       "name_locative":"\u015awinouj\u015bciu"
    },
    {
       "id":3,
       "name":"Bielawa",
       "unique_name":"bielawa",
       "county_id":2,
       "voivodeship_id":1,
       "latitude":"50.67538980",
       "longitude":"16.60719264",
       "name_locative":"\u015awinouj\u015bciu"
    },
    {
       "id":4,
       "name":"Dzier\u017coni\u00f3w",
       "unique_name":"dzierzoniow",
       "county_id":2,
       "voivodeship_id":1,
       "latitude":"50.72917250",
       "longitude":"16.65675314",
       "name_locative":"\u015awinouj\u015bciu"
    },
    {
       "id":5,
       "name":"Pieszyce",
       "unique_name":"pieszyce",
       "county_id":2,
       "voivodeship_id":1,
       "latitude":"50.71244120",
       "longitude":"16.58160900",
       "name_locative":"\u015awinouj\u015bciu"
    },
    {
       "id":6,
       "name":"Pi\u0142awa G\u00f3rna",
       "unique_name":"pilawa-gorna",
       "county_id":2,
       "voivodeship_id":1,
       "latitude":"50.68291525",
       "longitude":"16.75106802",
       "name_locative":"\u015awinouj\u015bciu"
    },
    {
       "id":7,
       "name":"Niemcza",
       "unique_name":"niemcza",
       "county_id":2,
       "voivodeship_id":1,
       "latitude":"50.71634260",
       "longitude":"16.83503980",
       "name_locative":"\u015awinouj\u015bciu"
    },
    {
       "id":8,
       "name":"G\u0142og\u00f3w",
       "unique_name":"glogow",
       "county_id":3,
       "voivodeship_id":1,
       "latitude":"51.67019285",
       "longitude":"16.06140366",
       "name_locative":"\u015awinouj\u015bciu"
    },
    {
       "id":9,
       "name":"G\u00f3ra",
       "unique_name":"gora",
       "county_id":4,
       "voivodeship_id":1,
       "latitude":"51.66814990",
       "longitude":"16.53932770",
       "name_locative":"\u015awinouj\u015bciu"
    },
    {
       "id":10,
       "name":"W\u0105sosz",
       "unique_name":"wasosz",
       "county_id":4,
       "voivodeship_id":1,
       "latitude":"51.56410000",
       "longitude":"16.69307000",
       "name_locative":"\u015awinouj\u015bciu"
    },
    {
       "id":11,
       "name":"Jawor",
       "unique_name":"jawor",
       "county_id":5,
       "voivodeship_id":1,
       "latitude":"51.06770210",
       "longitude":"16.19761364",
       "name_locative":"\u015awinouj\u015bciu"
    },
    {
       "id":12,
       "name":"Bolk\u00f3w",
       "unique_name":"bolkow",
       "county_id":5,
       "voivodeship_id":1,
       "latitude":"50.92196950",
       "longitude":"16.10065190",
       "name_locative":"\u015awinouj\u015bciu"
    },
    {
       "id":13,
       "name":"Karpacz",
       "unique_name":"karpacz",
       "county_id":6,
       "voivodeship_id":1,
       "latitude":"50.76399830",
       "longitude":"15.74519811",
       "name_locative":"\u015awinouj\u015bciu"
    },
    {
       "id":14,
       "name":"Kowary",
       "unique_name":"kowary",
       "county_id":6,
       "voivodeship_id":1,
       "latitude":"50.77867800",
       "longitude":"15.83605086",
       "name_locative":"\u015awinouj\u015bciu"
    },
    {
       "id":15,
       "name":"Piechowice",
       "unique_name":"piechowice",
       "county_id":6,
       "voivodeship_id":1,
       "latitude":"50.82770650",
       "longitude":"15.57653885",
       "name_locative":"\u015awinouj\u015bciu"
    },
    {
       "id":16,
       "name":"Szklarska Por\u0119ba",
       "unique_name":"szklarska-poreba",
       "county_id":6,
       "voivodeship_id":1,
       "latitude":"50.81428365",
       "longitude":"15.45449666",
       "name_locative":"\u015awinouj\u015bciu"
    },
    {
       "id":17,
       "name":"Kamienna G\u00f3ra",
       "unique_name":"kamienna-gora",
       "county_id":7,
       "voivodeship_id":1,
       "latitude":"50.78468925",
       "longitude":"16.02236307",
       "name_locative":"\u015awinouj\u015bciu"
    },
    {
       "id":18,
       "name":"Lubawka",
       "unique_name":"lubawka",
       "county_id":7,
       "voivodeship_id":1,
       "latitude":"50.70708820",
       "longitude":"16.00038940",
       "name_locative":"\u015awinouj\u015bciu"
    },
    {
       "id":19,
       "name":"Duszniki-Zdr\u00f3j",
       "unique_name":"duszniki-zdroj",
       "county_id":8,
       "voivodeship_id":1,
       "latitude":"50.37034025",
       "longitude":"16.37849070",
       "name_locative":"\u015awinouj\u015bciu"
    },
    {
       "id":20,
       "name":"K\u0142odzko",
       "unique_name":"klodzko",
       "county_id":8,
       "voivodeship_id":1,
       "latitude":"50.43371175",
       "longitude":"16.64224649",
       "name_locative":"\u015awinouj\u015bciu"
    },
    {
       "id":21,
       "name":"Kudowa-Zdr\u00f3j",
       "unique_name":"kudowa-zdroj",
       "county_id":8,
       "voivodeship_id":1,
       "latitude":"50.44578565",
       "longitude":"16.25414734",
       "name_locative":"\u015awinouj\u015bciu"
    },
    {
       "id":22,
       "name":"Nowa Ruda",
       "unique_name":"nowa-ruda",
       "county_id":8,
       "voivodeship_id":1,
       "latitude":"50.57349525",
       "longitude":"16.51137808",
       "name_locative":"\u015awinouj\u015bciu"
    },
    {
       "id":23,
       "name":"Polanica-Zdr\u00f3j",
       "unique_name":"polanica-zdroj",
       "county_id":8,
       "voivodeship_id":1,
       "latitude":"50.39886095",
       "longitude":"16.50620221",
       "name_locative":"\u015awinouj\u015bciu"
    },
    {
       "id":24,
       "name":"Bystrzyca K\u0142odzka",
       "unique_name":"bystrzyca-klodzka",
       "county_id":8,
       "voivodeship_id":1,
       "latitude":"50.29686840",
       "longitude":"16.65201700",
       "name_locative":"\u015awinouj\u015bciu"
    },
    {
       "id":25,
       "name":"L\u0105dek-Zdr\u00f3j",
       "unique_name":"ladek-zdroj",
       "county_id":8,
       "voivodeship_id":1,
       "latitude":"50.34582540",
       "longitude":"16.87259480",
       "name_locative":"\u015awinouj\u015bciu"
    },
    {
       "id":26,
       "name":"Mi\u0119dzylesie",
       "unique_name":"miedzylesie",
       "county_id":8,
       "voivodeship_id":1,
       "latitude":"50.14801310",
       "longitude":"16.66693480",
       "name_locative":"\u015awinouj\u015bciu"
    },
    {
       "id":27,
       "name":"Radk\u00f3w",
       "unique_name":"radkow",
       "county_id":8,
       "voivodeship_id":1,
       "latitude":"50.50421820",
       "longitude":"16.40135100",
       "name_locative":"\u015awinouj\u015bciu"
    },
    {
       "id":28,
       "name":"Stronie \u015al\u0105skie",
       "unique_name":"stronie-slaskie",
       "county_id":8,
       "voivodeship_id":1,
       "latitude":"50.29163370",
       "longitude":"16.87369190",
       "name_locative":"\u015awinouj\u015bciu"
    },
    {
       "id":29,
       "name":"Szczytna",
       "unique_name":"szczytna",
       "county_id":8,
       "voivodeship_id":1,
       "latitude":"50.41692810",
       "longitude":"16.44081850",
       "name_locative":"\u015awinouj\u015bciu"
    },
    {
       "id":30,
       "name":"Chojn\u00f3w",
       "unique_name":"chojnow",
       "county_id":9,
       "voivodeship_id":1,
       "latitude":"51.27221380",
       "longitude":"15.93938545",
       "name_locative":"\u015awinouj\u015bciu"
    },
    {
       "id":31,
       "name":"Prochowice",
       "unique_name":"prochowice",
       "county_id":9,
       "voivodeship_id":1,
       "latitude":"51.27342200",
       "longitude":"16.36443210",
       "name_locative":"\u015awinouj\u015bciu"
    },
    {
       "id":32,
       "name":"Luba\u0144",
       "unique_name":"luban",
       "county_id":10,
       "voivodeship_id":1,
       "latitude":"51.11471045",
       "longitude":"15.28115743",
       "name_locative":"\u015awinouj\u015bciu"
    },
    {
       "id":33,
       "name":"\u015awierad\u00f3w-Zdr\u00f3j",
       "unique_name":"swieradow-zdroj",
       "county_id":10,
       "voivodeship_id":1,
       "latitude":"50.91696915",
       "longitude":"15.30847493",
       "name_locative":"\u015awinouj\u015bciu"
    },
    {
       "id":34,
       "name":"Le\u015bna",
       "unique_name":"lesna",
       "county_id":10,
       "voivodeship_id":1,
       "latitude":"51.02416670",
       "longitude":"15.26361110",
       "name_locative":"\u015awinouj\u015bciu"
    },
    {
       "id":35,
       "name":"Olszyna",
       "unique_name":"olszyna",
       "county_id":10,
       "voivodeship_id":1,
       "latitude":"51.06555050",
       "longitude":"15.37531020",
       "name_locative":"\u015awinouj\u015bciu"
    },
    {
       "id":36,
       "name":"Lubin",
       "unique_name":"lubin",
       "county_id":11,
       "voivodeship_id":1,
       "latitude":"51.39967830",
       "longitude":"16.19933794",
       "name_locative":"\u015awinouj\u015bciu"
    },
    {
       "id":37,
       "name":"\u015acinawa",
       "unique_name":"scinawa",
       "county_id":11,
       "voivodeship_id":1,
       "latitude":"51.41653460",
       "longitude":"16.42597320",
       "name_locative":"\u015awinouj\u015bciu"
    },
    {
       "id":38,
       "name":"Gryf\u00f3w \u015al\u0105ski",
       "unique_name":"gryfow-slaski",
       "county_id":12,
       "voivodeship_id":1,
       "latitude":"51.02814550",
       "longitude":"15.41450510",
       "name_locative":"\u015awinouj\u015bciu"
    },
    {
       "id":39,
       "name":"Lubomierz",
       "unique_name":"lubomierz",
       "county_id":12,
       "voivodeship_id":1,
       "latitude":"51.01245690",
       "longitude":"15.51022000",
       "name_locative":"\u015awinouj\u015bciu"
    },
    {
       "id":40,
       "name":"Lw\u00f3wek \u015al\u0105ski",
       "unique_name":"lwowek-slaski",
       "county_id":12,
       "voivodeship_id":1,
       "latitude":"51.11088910",
       "longitude":"15.58500180",
       "name_locative":"\u015awinouj\u015bciu"
    },
    {
       "id":41,
       "name":"Mirsk",
       "unique_name":"mirsk",
       "county_id":12,
       "voivodeship_id":1,
       "latitude":"50.97218360",
       "longitude":"15.38579260",
       "name_locative":"\u015awinouj\u015bciu"
    },
    {
       "id":42,
       "name":"Wle\u0144",
       "unique_name":"wlen",
       "county_id":12,
       "voivodeship_id":1,
       "latitude":"51.01688140",
       "longitude":"15.67446450",
       "name_locative":"\u015awinouj\u015bciu"
    },
    {
       "id":43,
       "name":"Milicz",
       "unique_name":"milicz",
       "county_id":13,
       "voivodeship_id":1,
       "latitude":"51.53199570",
       "longitude":"17.27524850",
       "name_locative":"\u015awinouj\u015bciu"
    },
    {
       "id":44,
       "name":"Ole\u015bnica",
       "unique_name":"olesnica",
       "county_id":14,
       "voivodeship_id":1,
       "latitude":"51.21024280",
       "longitude":"17.38294699",
       "name_locative":"\u015awinouj\u015bciu"
    },
    {
       "id":45,
       "name":"Bierut\u00f3w",
       "unique_name":"bierutow",
       "county_id":14,
       "voivodeship_id":1,
       "latitude":"51.12527380",
       "longitude":"17.54003510",
       "name_locative":"\u015awinouj\u015bciu"
    },
    {
       "id":46,
       "name":"Mi\u0119dzyb\u00f3rz",
       "unique_name":"miedzyborz",
       "county_id":14,
       "voivodeship_id":1,
       "latitude":"51.39771100",
       "longitude":"17.66501650",
       "name_locative":"\u015awinouj\u015bciu"
    },
    {
       "id":47,
       "name":"Syc\u00f3w",
       "unique_name":"sycow",
       "county_id":14,
       "voivodeship_id":1,
       "latitude":"51.30998000",
       "longitude":"17.72354000",
       "name_locative":"\u015awinouj\u015bciu"
    },
    {
       "id":48,
       "name":"Twardog\u00f3ra",
       "unique_name":"twardogora",
       "county_id":14,
       "voivodeship_id":1,
       "latitude":"51.36455700",
       "longitude":"17.46959900",
       "name_locative":"\u015awinouj\u015bciu"
    },
    {
       "id":49,
       "name":"O\u0142awa",
       "unique_name":"olawa",
       "county_id":15,
       "voivodeship_id":1,
       "latitude":"50.95709295",
       "longitude":"17.29026977",
       "name_locative":"\u015awinouj\u015bciu"
    },
    {
       "id":50,
       "name":"Jelcz-Laskowice",
       "unique_name":"jelcz-laskowice",
       "county_id":15,
       "voivodeship_id":1,
       "latitude":"51.03983060",
       "longitude":"17.34996380",
       "name_locative":"\u015awinouj\u015bciu"
    },
    {
       "id":51,
       "name":"Chocian\u00f3w",
       "unique_name":"chocianow",
       "county_id":16,
       "voivodeship_id":1,
       "latitude":"51.41683270",
       "longitude":"15.89868890",
       "name_locative":"\u015awinouj\u015bciu"
    },
    {
       "id":52,
       "name":"Polkowice",
       "unique_name":"polkowice",
       "county_id":16,
       "voivodeship_id":1,
       "latitude":"51.50392880",
       "longitude":"16.07133710",
       "name_locative":"\u015awinouj\u015bciu"
    },
    {
       "id":53,
       "name":"Przemk\u00f3w",
       "unique_name":"przemkow",
       "county_id":16,
       "voivodeship_id":1,
       "latitude":"51.52754180",
       "longitude":"15.78744730",
       "name_locative":"\u015awinouj\u015bciu"
    },
    {
       "id":54,
       "name":"Strzelin",
       "unique_name":"strzelin",
       "county_id":17,
       "voivodeship_id":1,
       "latitude":"50.78092000",
       "longitude":"17.06839470",
       "name_locative":"\u015awinouj\u015bciu"
    },
    {
       "id":55,
       "name":"Wi\u0105z\u00f3w",
       "unique_name":"wiazow",
       "county_id":17,
       "voivodeship_id":1,
       "latitude":"50.81387940",
       "longitude":"17.20172380",
       "name_locative":"\u015awinouj\u015bciu"
    },
    {
       "id":56,
       "name":"\u015aroda \u015al\u0105ska",
       "unique_name":"sroda-slaska",
       "county_id":18,
       "voivodeship_id":1,
       "latitude":"51.16389490",
       "longitude":"16.59425050",
       "name_locative":"\u015awinouj\u015bciu"
    },
    {
       "id":57,
       "name":"\u015awidnica",
       "unique_name":"swidnica",
       "county_id":19,
       "voivodeship_id":1,
       "latitude":"50.84248350",
       "longitude":"16.48705490",
       "name_locative":"\u015awinouj\u015bciu"
    },
    {
       "id":58,
       "name":"\u015awiebodzice",
       "unique_name":"swiebodzice",
       "county_id":19,
       "voivodeship_id":1,
       "latitude":"50.87246455",
       "longitude":"16.32287835",
       "name_locative":"\u015awinouj\u015bciu"
    },
    {
       "id":59,
       "name":"Jaworzyna \u015al\u0105ska",
       "unique_name":"jaworzyna-slaska",
       "county_id":19,
       "voivodeship_id":1,
       "latitude":"50.91442170",
       "longitude":"16.43086420",
       "name_locative":"\u015awinouj\u015bciu"
    },
    {
       "id":60,
       "name":"Strzegom",
       "unique_name":"strzegom",
       "county_id":19,
       "voivodeship_id":1,
       "latitude":"50.96010660",
       "longitude":"16.34621340",
       "name_locative":"\u015awinouj\u015bciu"
    },
    {
       "id":61,
       "name":"\u017bar\u00f3w",
       "unique_name":"zarow",
       "county_id":19,
       "voivodeship_id":1,
       "latitude":"50.94384160",
       "longitude":"16.49235380",
       "name_locative":"\u015awinouj\u015bciu"
    },
    {
       "id":62,
       "name":"Oborniki \u015al\u0105skie",
       "unique_name":"oborniki-slaskie",
       "county_id":20,
       "voivodeship_id":1,
       "latitude":"51.30106620",
       "longitude":"16.91455090",
       "name_locative":"\u015awinouj\u015bciu"
    },
    {
       "id":63,
       "name":"Prusice",
       "unique_name":"prusice",
       "county_id":20,
       "voivodeship_id":1,
       "latitude":"51.37076630",
       "longitude":"16.96268160",
       "name_locative":"\u015awinouj\u015bciu"
    },
    {
       "id":64,
       "name":"Trzebnica",
       "unique_name":"trzebnica",
       "county_id":20,
       "voivodeship_id":1,
       "latitude":"51.30964240",
       "longitude":"17.06259600",
       "name_locative":"\u015awinouj\u015bciu"
    },
    {
       "id":65,
       "name":"\u017bmigr\u00f3d",
       "unique_name":"zmigrod",
       "county_id":20,
       "voivodeship_id":1,
       "latitude":"51.47173860",
       "longitude":"16.90827190",
       "name_locative":"\u015awinouj\u015bciu"
    },
    {
       "id":66,
       "name":"Bogusz\u00f3w-Gorce",
       "unique_name":"boguszow-gorce",
       "county_id":21,
       "voivodeship_id":1,
       "latitude":"50.75525215",
       "longitude":"16.19636346",
       "name_locative":"\u015awinouj\u015bciu"
    },
    {
       "id":67,
       "name":"Jedlina-Zdr\u00f3j",
       "unique_name":"jedlina-zdroj",
       "county_id":21,
       "voivodeship_id":1,
       "latitude":"50.72422805",
       "longitude":"16.33758096",
       "name_locative":"\u015awinouj\u015bciu"
    },
    {
       "id":68,
       "name":"Szczawno-Zdr\u00f3j",
       "unique_name":"szczawno-zdroj",
       "county_id":21,
       "voivodeship_id":1,
       "latitude":"50.79516670",
       "longitude":"16.22327128",
       "name_locative":"\u015awinouj\u015bciu"
    },
    {
       "id":69,
       "name":"G\u0142uszyca",
       "unique_name":"gluszyca",
       "county_id":21,
       "voivodeship_id":1,
       "latitude":"50.68622020",
       "longitude":"16.37305830",
       "name_locative":"\u015awinouj\u015bciu"
    },
    {
       "id":70,
       "name":"Mierosz\u00f3w",
       "unique_name":"mieroszow",
       "county_id":21,
       "voivodeship_id":1,
       "latitude":"50.66698580",
       "longitude":"16.18620440",
       "name_locative":"\u015awinouj\u015bciu"
    },
    {
       "id":71,
       "name":"Brzeg Dolny",
       "unique_name":"brzeg-dolny",
       "county_id":22,
       "voivodeship_id":1,
       "latitude":"51.26136820",
       "longitude":"16.72281230",
       "name_locative":"\u015awinouj\u015bciu"
    },
    {
       "id":72,
       "name":"Wo\u0142\u00f3w",
       "unique_name":"wolow",
       "county_id":22,
       "voivodeship_id":1,
       "latitude":"51.33638410",
       "longitude":"16.64869030",
       "name_locative":"\u015awinouj\u015bciu"
    },
    {
       "id":73,
       "name":"K\u0105ty Wroc\u0142awskie",
       "unique_name":"katy-wroclawskie",
       "county_id":23,
       "voivodeship_id":1,
       "latitude":"51.03026560",
       "longitude":"16.77023250",
       "name_locative":"\u015awinouj\u015bciu"
    },
    {
       "id":74,
       "name":"Sob\u00f3tka",
       "unique_name":"sobotka",
       "county_id":23,
       "voivodeship_id":1,
       "latitude":"50.89908850",
       "longitude":"16.74457050",
       "name_locative":"\u015awinouj\u015bciu"
    },
    {
       "id":75,
       "name":"Siechnice",
       "unique_name":"siechnice",
       "county_id":23,
       "voivodeship_id":1,
       "latitude":"51.03238750",
       "longitude":"17.15072750",
       "name_locative":"\u015awinouj\u015bciu"
    },
    {
       "id":76,
       "name":"Bardo",
       "unique_name":"bardo",
       "county_id":24,
       "voivodeship_id":1,
       "latitude":"50.50676000",
       "longitude":"16.74023820",
       "name_locative":"\u015awinouj\u015bciu"
    },
    {
       "id":77,
       "name":"Kamieniec Z\u0105bkowicki",
       "unique_name":"kamieniec-zabkowicki",
       "county_id":24,
       "voivodeship_id":1,
       "latitude":"50.52291390",
       "longitude":"16.87361430",
       "name_locative":"\u015awinouj\u015bciu"
    },
    {
       "id":78,
       "name":"Z\u0105bkowice \u015al\u0105skie",
       "unique_name":"zabkowice-slaskie",
       "county_id":24,
       "voivodeship_id":1,
       "latitude":"50.58926980",
       "longitude":"16.81115180",
       "name_locative":"\u015awinouj\u015bciu"
    },
    {
       "id":79,
       "name":"Zi\u0119bice",
       "unique_name":"ziebice",
       "county_id":24,
       "voivodeship_id":1,
       "latitude":"50.60077520",
       "longitude":"17.04056330",
       "name_locative":"\u015awinouj\u015bciu"
    },
    {
       "id":80,
       "name":"Z\u0142oty Stok",
       "unique_name":"zloty-stok",
       "county_id":24,
       "voivodeship_id":1,
       "latitude":"50.44514300",
       "longitude":"16.87658360",
       "name_locative":"\u015awinouj\u015bciu"
    },
    {
       "id":81,
       "name":"Zawid\u00f3w",
       "unique_name":"zawidow",
       "county_id":25,
       "voivodeship_id":1,
       "latitude":"51.02449745",
       "longitude":"15.04515006",
       "name_locative":"\u015awinouj\u015bciu"
    },
    {
       "id":82,
       "name":"Zgorzelec",
       "unique_name":"zgorzelec",
       "county_id":25,
       "voivodeship_id":1,
       "latitude":"51.15178695",
       "longitude":"15.01443297",
       "name_locative":"\u015awinouj\u015bciu"
    },
    {
       "id":83,
       "name":"Bogatynia",
       "unique_name":"bogatynia",
       "county_id":25,
       "voivodeship_id":1,
       "latitude":"50.90771470",
       "longitude":"14.95391850",
       "name_locative":"\u015awinouj\u015bciu"
    },
    {
       "id":84,
       "name":"Pie\u0144sk",
       "unique_name":"piensk",
       "county_id":25,
       "voivodeship_id":1,
       "latitude":"51.24578340",
       "longitude":"15.04498710",
       "name_locative":"\u015awinouj\u015bciu"
    },
    {
       "id":85,
       "name":"W\u0119gliniec",
       "unique_name":"wegliniec",
       "county_id":25,
       "voivodeship_id":1,
       "latitude":"51.28712030",
       "longitude":"15.22413550",
       "name_locative":"\u015awinouj\u015bciu"
    },
    {
       "id":86,
       "name":"Wojciesz\u00f3w",
       "unique_name":"wojcieszow",
       "county_id":26,
       "voivodeship_id":1,
       "latitude":"50.95591920",
       "longitude":"15.92830076",
       "name_locative":"\u015awinouj\u015bciu"
    },
    {
       "id":87,
       "name":"Z\u0142otoryja",
       "unique_name":"zlotoryja",
       "county_id":26,
       "voivodeship_id":1,
       "latitude":"51.12240890",
       "longitude":"15.91944763",
       "name_locative":"\u015awinouj\u015bciu"
    },
    {
       "id":88,
       "name":"\u015awierzawa",
       "unique_name":"swierzawa",
       "county_id":26,
       "voivodeship_id":1,
       "latitude":"51.01474040",
       "longitude":"15.89489970",
       "name_locative":"\u015awinouj\u015bciu"
    },
    {
       "id":89,
       "name":"Jelenia G\u00f3ra",
       "unique_name":"jelenia-gora",
       "county_id":315,
       "voivodeship_id":1,
       "latitude":"50.85010490",
       "longitude":"15.65374924",
       "name_locative":"\u015awinouj\u015bciu"
    },
    {
       "id":90,
       "name":"Legnica",
       "unique_name":"legnica",
       "county_id":315,
       "voivodeship_id":1,
       "latitude":"51.20476890",
       "longitude":"16.17467503",
       "name_locative":"\u015awinouj\u015bciu"
    },
    {
       "id":91,
       "name":"Wroc\u0142aw",
       "unique_name":"wroclaw",
       "county_id":315,
       "voivodeship_id":1,
       "latitude":"51.12631060",
       "longitude":"16.97819633",
       "name_locative":"\u015awinouj\u015bciu"
    },
    {
       "id":92,
       "name":"Wa\u0142brzych",
       "unique_name":"walbrzych",
       "county_id":315,
       "voivodeship_id":1,
       "latitude":"50.78522100",
       "longitude":"16.28464034",
       "name_locative":"\u015awinouj\u015bciu"
    },
    {
       "id":93,
       "name":"Aleksandr\u00f3w Kujawski",
       "unique_name":"aleksandrow-kujawski",
       "county_id":27,
       "voivodeship_id":2,
       "latitude":"52.87646465",
       "longitude":"18.69407098",
       "name_locative":"\u015awinouj\u015bciu"
    },
    {
       "id":94,
       "name":"Ciechocinek",
       "unique_name":"ciechocinek",
       "county_id":27,
       "voivodeship_id":2,
       "latitude":"52.88394130",
       "longitude":"18.80326826",
       "name_locative":"\u015awinouj\u015bciu"
    },
    {
       "id":95,
       "name":"Nieszawa",
       "unique_name":"nieszawa",
       "county_id":27,
       "voivodeship_id":2,
       "latitude":"52.83965060",
       "longitude":"18.88516327",
       "name_locative":"\u015awinouj\u015bciu"
    },
    {
       "id":96,
       "name":"Brodnica",
       "unique_name":"brodnica",
       "county_id":28,
       "voivodeship_id":2,
       "latitude":"53.25802240",
       "longitude":"19.40543371",
       "name_locative":"\u015awinouj\u015bciu"
    },
    {
       "id":97,
       "name":"G\u00f3rzno",
       "unique_name":"gorzno",
       "county_id":28,
       "voivodeship_id":2,
       "latitude":"53.19808460",
       "longitude":"19.64457130",
       "name_locative":"\u015awinouj\u015bciu"
    },
    {
       "id":98,
       "name":"Jab\u0142onowo Pomorskie",
       "unique_name":"jablonowo-pomorskie",
       "county_id":28,
       "voivodeship_id":2,
       "latitude":"53.38798400",
       "longitude":"19.15270340",
       "name_locative":"\u015awinouj\u015bciu"
    },
    {
       "id":99,
       "name":"Koronowo",
       "unique_name":"koronowo",
       "county_id":29,
       "voivodeship_id":2,
       "latitude":"53.31406360",
       "longitude":"17.93698130",
       "name_locative":"\u015awinouj\u015bciu"
    },
    {
       "id":100,
       "name":"Solec Kujawski",
       "unique_name":"solec-kujawski",
       "county_id":29,
       "voivodeship_id":2,
       "latitude":"53.07919650",
       "longitude":"18.22460860",
       "name_locative":"\u015awinouj\u015bciu"
    },
    {
       "id":101,
       "name":"Che\u0142mno",
       "unique_name":"chelmno",
       "county_id":30,
       "voivodeship_id":2,
       "latitude":"53.35250285",
       "longitude":"18.44042471",
       "name_locative":"\u015awinouj\u015bciu"
    },
    {
       "id":102,
       "name":"Golub-Dobrzy\u0144",
       "unique_name":"golub-dobrzyn",
       "county_id":31,
       "voivodeship_id":2,
       "latitude":"53.11227855",
       "longitude":"19.05728484",
       "name_locative":"\u015awinouj\u015bciu"
    },
    {
       "id":103,
       "name":"Kowalewo Pomorskie",
       "unique_name":"kowalewo-pomorskie",
       "county_id":31,
       "voivodeship_id":2,
       "latitude":"53.15431370",
       "longitude":"18.89754730",
       "name_locative":"\u015awinouj\u015bciu"
    },
    {
       "id":104,
       "name":"\u0141asin",
       "unique_name":"lasin",
       "county_id":32,
       "voivodeship_id":2,
       "latitude":"53.51965260",
       "longitude":"19.08703110",
       "name_locative":"\u015awinouj\u015bciu"
    },
    {
       "id":105,
       "name":"Radzy\u0144 Che\u0142mi\u0144ski",
       "unique_name":"radzyn-chelminski",
       "county_id":32,
       "voivodeship_id":2,
       "latitude":"53.38500600",
       "longitude":"18.93519060",
       "name_locative":"\u015awinouj\u015bciu"
    },
    {
       "id":106,
       "name":"Inowroc\u0142aw",
       "unique_name":"inowroclaw",
       "county_id":33,
       "voivodeship_id":2,
       "latitude":"52.78146430",
       "longitude":"18.24630855",
       "name_locative":"\u015awinouj\u015bciu"
    },
    {
       "id":107,
       "name":"Gniewkowo",
       "unique_name":"gniewkowo",
       "county_id":33,
       "voivodeship_id":2,
       "latitude":"52.89442900",
       "longitude":"18.40668170",
       "name_locative":"\u015awinouj\u015bciu"
    },
    {
       "id":108,
       "name":"Janikowo",
       "unique_name":"janikowo",
       "county_id":33,
       "voivodeship_id":2,
       "latitude":"52.75316480",
       "longitude":"18.11410240",
       "name_locative":"\u015awinouj\u015bciu"
    },
    {
       "id":109,
       "name":"Kruszwica",
       "unique_name":"kruszwica",
       "county_id":33,
       "voivodeship_id":2,
       "latitude":"52.67437970",
       "longitude":"18.32547660",
       "name_locative":"\u015awinouj\u015bciu"
    },
    {
       "id":110,
       "name":"Pako\u015b\u0107",
       "unique_name":"pakosc",
       "county_id":33,
       "voivodeship_id":2,
       "latitude":"52.80733190",
       "longitude":"18.08996120",
       "name_locative":"\u015awinouj\u015bciu"
    },
    {
       "id":111,
       "name":"Lipno",
       "unique_name":"lipno",
       "county_id":34,
       "voivodeship_id":2,
       "latitude":"52.84207250",
       "longitude":"19.18316283",
       "name_locative":"\u015awinouj\u015bciu"
    },
    {
       "id":112,
       "name":"Dobrzy\u0144 nad Wis\u0142\u0105",
       "unique_name":"dobrzyn-nad-wisla",
       "county_id":34,
       "voivodeship_id":2,
       "latitude":"52.63745180",
       "longitude":"19.32137140",
       "name_locative":"\u015awinouj\u015bciu"
    },
    {
       "id":113,
       "name":"Sk\u0119pe",
       "unique_name":"skepe",
       "county_id":34,
       "voivodeship_id":2,
       "latitude":"52.86715620",
       "longitude":"19.34652040",
       "name_locative":"\u015awinouj\u015bciu"
    },
    {
       "id":114,
       "name":"Mogilno",
       "unique_name":"mogilno",
       "county_id":35,
       "voivodeship_id":2,
       "latitude":"52.65734100",
       "longitude":"17.95006770",
       "name_locative":"\u015awinouj\u015bciu"
    },
    {
       "id":115,
       "name":"Strzelno",
       "unique_name":"strzelno",
       "county_id":35,
       "voivodeship_id":2,
       "latitude":"52.63017420",
       "longitude":"18.17338070",
       "name_locative":"\u015awinouj\u015bciu"
    },
    {
       "id":116,
       "name":"Kcynia",
       "unique_name":"kcynia",
       "county_id":36,
       "voivodeship_id":2,
       "latitude":"52.99176680",
       "longitude":"17.48737290",
       "name_locative":"\u015awinouj\u015bciu"
    },
    {
       "id":117,
       "name":"Mrocza",
       "unique_name":"mrocza",
       "county_id":36,
       "voivodeship_id":2,
       "latitude":"53.24384630",
       "longitude":"17.60723630",
       "name_locative":"\u015awinouj\u015bciu"
    },
    {
       "id":118,
       "name":"Nak\u0142o nad Noteci\u0105",
       "unique_name":"naklo-nad-notecia",
       "county_id":36,
       "voivodeship_id":2,
       "latitude":"53.13868960",
       "longitude":"17.59988910",
       "name_locative":"\u015awinouj\u015bciu"
    },
    {
       "id":119,
       "name":"Szubin",
       "unique_name":"szubin",
       "county_id":36,
       "voivodeship_id":2,
       "latitude":"53.01175030",
       "longitude":"17.74394020",
       "name_locative":"\u015awinouj\u015bciu"
    },
    {
       "id":120,
       "name":"Radziej\u00f3w",
       "unique_name":"radziejow",
       "county_id":37,
       "voivodeship_id":2,
       "latitude":"52.61910615",
       "longitude":"18.52936529",
       "name_locative":"\u015awinouj\u015bciu"
    },
    {
       "id":121,
       "name":"Piotrk\u00f3w Kujawski",
       "unique_name":"piotrkow-kujawski",
       "county_id":37,
       "voivodeship_id":2,
       "latitude":"52.55057000",
       "longitude":"18.49872000",
       "name_locative":"\u015awinouj\u015bciu"
    },
    {
       "id":122,
       "name":"Rypin",
       "unique_name":"rypin",
       "county_id":38,
       "voivodeship_id":2,
       "latitude":"53.06296225",
       "longitude":"19.41933493",
       "name_locative":"\u015awinouj\u015bciu"
    },
    {
       "id":123,
       "name":"Kamie\u0144 Kraje\u0144ski",
       "unique_name":"kamien-krajenski",
       "county_id":39,
       "voivodeship_id":2,
       "latitude":"53.53332030",
       "longitude":"17.51991430",
       "name_locative":"\u015awinouj\u015bciu"
    },
    {
       "id":124,
       "name":"S\u0119p\u00f3lno Kraje\u0144skie",
       "unique_name":"sepolno-krajenskie",
       "county_id":39,
       "voivodeship_id":2,
       "latitude":"53.45474340",
       "longitude":"17.53483730",
       "name_locative":"\u015awinouj\u015bciu"
    },
    {
       "id":125,
       "name":"Wi\u0119cbork",
       "unique_name":"wiecbork",
       "county_id":39,
       "voivodeship_id":2,
       "latitude":"53.35254530",
       "longitude":"17.48739250",
       "name_locative":"\u015awinouj\u015bciu"
    },
    {
       "id":126,
       "name":"Nowe",
       "unique_name":"nowe",
       "county_id":40,
       "voivodeship_id":2,
       "latitude":"53.64623250",
       "longitude":"18.72904680",
       "name_locative":"\u015awinouj\u015bciu"
    },
    {
       "id":127,
       "name":"\u015awiecie",
       "unique_name":"swiecie",
       "county_id":40,
       "voivodeship_id":2,
       "latitude":"53.40725180",
       "longitude":"18.44552530",
       "name_locative":"\u015awinouj\u015bciu"
    },
    {
       "id":128,
       "name":"Che\u0142m\u017ca",
       "unique_name":"chelmza",
       "county_id":41,
       "voivodeship_id":2,
       "latitude":"53.19237570",
       "longitude":"18.61255455",
       "name_locative":"\u015awinouj\u015bciu"
    },
    {
       "id":129,
       "name":"Tuchola",
       "unique_name":"tuchola",
       "county_id":42,
       "voivodeship_id":2,
       "latitude":"53.58809010",
       "longitude":"17.85904140",
       "name_locative":"\u015awinouj\u015bciu"
    },
    {
       "id":130,
       "name":"W\u0105brze\u017ano",
       "unique_name":"wabrzezno",
       "county_id":43,
       "voivodeship_id":2,
       "latitude":"53.27835005",
       "longitude":"18.94049478",
       "name_locative":"\u015awinouj\u015bciu"
    },
    {
       "id":131,
       "name":"Kowal",
       "unique_name":"kowal",
       "county_id":44,
       "voivodeship_id":2,
       "latitude":"52.53187295",
       "longitude":"19.14462471",
       "name_locative":"\u015awinouj\u015bciu"
    },
    {
       "id":132,
       "name":"Brze\u015b\u0107 Kujawski",
       "unique_name":"brzesc-kujawski",
       "county_id":44,
       "voivodeship_id":2,
       "latitude":"52.60481640",
       "longitude":"18.90154630",
       "name_locative":"\u015awinouj\u015bciu"
    },
    {
       "id":133,
       "name":"Chodecz",
       "unique_name":"chodecz",
       "county_id":44,
       "voivodeship_id":2,
       "latitude":"52.40517350",
       "longitude":"19.02725960",
       "name_locative":"\u015awinouj\u015bciu"
    },
    {
       "id":134,
       "name":"Izbica Kujawska",
       "unique_name":"izbica-kujawska",
       "county_id":44,
       "voivodeship_id":2,
       "latitude":"52.41925000",
       "longitude":"18.76435000",
       "name_locative":"\u015awinouj\u015bciu"
    },
    {
       "id":135,
       "name":"Lubie\u0144 Kujawski",
       "unique_name":"lubien-kujawski",
       "county_id":44,
       "voivodeship_id":2,
       "latitude":"52.40736000",
       "longitude":"19.16018000",
       "name_locative":"\u015awinouj\u015bciu"
    },
    {
       "id":136,
       "name":"Lubraniec",
       "unique_name":"lubraniec",
       "county_id":44,
       "voivodeship_id":2,
       "latitude":"52.54308300",
       "longitude":"18.83158320",
       "name_locative":"\u015awinouj\u015bciu"
    },
    {
       "id":137,
       "name":"Barcin",
       "unique_name":"barcin",
       "county_id":45,
       "voivodeship_id":2,
       "latitude":"52.86323460",
       "longitude":"17.94724630",
       "name_locative":"\u015awinouj\u015bciu"
    },
    {
       "id":138,
       "name":"Janowiec Wielkopolski",
       "unique_name":"janowiec-wielkopolski",
       "county_id":45,
       "voivodeship_id":2,
       "latitude":"52.75672640",
       "longitude":"17.48876980",
       "name_locative":"\u015awinouj\u015bciu"
    },
    {
       "id":139,
       "name":"\u0141abiszyn",
       "unique_name":"labiszyn",
       "county_id":45,
       "voivodeship_id":2,
       "latitude":"52.95286530",
       "longitude":"17.92058770",
       "name_locative":"\u015awinouj\u015bciu"
    },
    {
       "id":140,
       "name":"\u017bnin",
       "unique_name":"znin",
       "county_id":45,
       "voivodeship_id":2,
       "latitude":"52.84846200",
       "longitude":"17.72187910",
       "name_locative":"\u015awinouj\u015bciu"
    },
    {
       "id":141,
       "name":"Bydgoszcz",
       "unique_name":"bydgoszcz",
       "county_id":315,
       "voivodeship_id":2,
       "latitude":"53.12974625",
       "longitude":"18.02936966",
       "name_locative":"\u015awinouj\u015bciu"
    },
    {
       "id":142,
       "name":"Grudzi\u0105dz",
       "unique_name":"grudziadz",
       "county_id":315,
       "voivodeship_id":2,
       "latitude":"53.47251195",
       "longitude":"18.76189368",
       "name_locative":"\u015awinouj\u015bciu"
    },
    {
       "id":143,
       "name":"Toru\u0144",
       "unique_name":"torun",
       "county_id":315,
       "voivodeship_id":2,
       "latitude":"53.01453610",
       "longitude":"18.59658314",
       "name_locative":"\u015awinouj\u015bciu"
    },
    {
       "id":144,
       "name":"W\u0142oc\u0142awek",
       "unique_name":"wloclawek",
       "county_id":315,
       "voivodeship_id":2,
       "latitude":"52.66556360",
       "longitude":"19.09612975",
       "name_locative":"\u015awinouj\u015bciu"
    },
    {
       "id":145,
       "name":"Mi\u0119dzyrzec Podlaski",
       "unique_name":"miedzyrzec-podlaski",
       "county_id":46,
       "voivodeship_id":3,
       "latitude":"51.98161270",
       "longitude":"22.78672667",
       "name_locative":"\u015awinouj\u015bciu"
    },
    {
       "id":146,
       "name":"Terespol",
       "unique_name":"terespol",
       "county_id":46,
       "voivodeship_id":3,
       "latitude":"52.07671990",
       "longitude":"23.62227364",
       "name_locative":"\u015awinouj\u015bciu"
    },
    {
       "id":147,
       "name":"Bi\u0142goraj",
       "unique_name":"bilgoraj",
       "county_id":47,
       "voivodeship_id":3,
       "latitude":"50.53871450",
       "longitude":"22.71251795",
       "name_locative":"\u015awinouj\u015bciu"
    },
    {
       "id":148,
       "name":"Frampol",
       "unique_name":"frampol",
       "county_id":47,
       "voivodeship_id":3,
       "latitude":"50.67183200",
       "longitude":"22.66986660",
       "name_locative":"\u015awinouj\u015bciu"
    },
    {
       "id":149,
       "name":"Goraj",
       "unique_name":"goraj",
       "county_id":47,
       "voivodeship_id":3,
       "latitude":"50.72122940",
       "longitude":"22.66821460",
       "name_locative":"\u015awinouj\u015bciu"
    },
    {
       "id":150,
       "name":"J\u00f3zef\u00f3w",
       "unique_name":"jozefow",
       "county_id":47,
       "voivodeship_id":3,
       "latitude":"50.48082980",
       "longitude":"23.05405910",
       "name_locative":"\u015awinouj\u015bciu"
    },
    {
       "id":151,
       "name":"Tarnogr\u00f3d",
       "unique_name":"tarnogrod",
       "county_id":47,
       "voivodeship_id":3,
       "latitude":"50.36130900",
       "longitude":"22.74193840",
       "name_locative":"\u015awinouj\u015bciu"
    },
    {
       "id":152,
       "name":"Rejowiec Fabryczny",
       "unique_name":"rejowiec-fabryczny",
       "county_id":48,
       "voivodeship_id":3,
       "latitude":"51.11943210",
       "longitude":"23.24324596",
       "name_locative":"\u015awinouj\u015bciu"
    },
    {
       "id":153,
       "name":"Siedliszcze",
       "unique_name":"siedliszcze",
       "county_id":48,
       "voivodeship_id":3,
       "latitude":"51.19462350",
       "longitude":"23.16484550",
       "name_locative":"\u015awinouj\u015bciu"
    },
    {
       "id":154,
       "name":"Rejowiec",
       "unique_name":"rejowiec",
       "county_id":48,
       "voivodeship_id":3,
       "latitude":"51.09454530",
       "longitude":"23.28328510",
       "name_locative":"\u015awinouj\u015bciu"
    },
    {
       "id":155,
       "name":"Hrubiesz\u00f3w",
       "unique_name":"hrubieszow",
       "county_id":49,
       "voivodeship_id":3,
       "latitude":"50.80679625",
       "longitude":"23.88634988",
       "name_locative":"\u015awinouj\u015bciu"
    },
    {
       "id":156,
       "name":"Jan\u00f3w Lubelski",
       "unique_name":"janow-lubelski",
       "county_id":50,
       "voivodeship_id":3,
       "latitude":"50.70658950",
       "longitude":"22.41106630",
       "name_locative":"\u015awinouj\u015bciu"
    },
    {
       "id":157,
       "name":"Modliborzyce",
       "unique_name":"modliborzyce",
       "county_id":50,
       "voivodeship_id":3,
       "latitude":"50.75344670",
       "longitude":"22.32917140",
       "name_locative":"\u015awinouj\u015bciu"
    },
    {
       "id":158,
       "name":"Krasnystaw",
       "unique_name":"krasnystaw",
       "county_id":51,
       "voivodeship_id":3,
       "latitude":"50.99184805",
       "longitude":"23.16503800",
       "name_locative":"\u015awinouj\u015bciu"
    },
    {
       "id":159,
       "name":"Kra\u015bnik",
       "unique_name":"krasnik",
       "county_id":52,
       "voivodeship_id":3,
       "latitude":"50.94349320",
       "longitude":"22.20835267",
       "name_locative":"\u015awinouj\u015bciu"
    },
    {
       "id":160,
       "name":"Annopol",
       "unique_name":"annopol",
       "county_id":52,
       "voivodeship_id":3,
       "latitude":"50.88516550",
       "longitude":"21.85508360",
       "name_locative":"\u015awinouj\u015bciu"
    },
    {
       "id":161,
       "name":"Urz\u0119d\u00f3w",
       "unique_name":"urzedow",
       "county_id":52,
       "voivodeship_id":3,
       "latitude":"50.99390460",
       "longitude":"22.14357560",
       "name_locative":"\u015awinouj\u015bciu"
    },
    {
       "id":162,
       "name":"Lubart\u00f3w",
       "unique_name":"lubartow",
       "county_id":53,
       "voivodeship_id":3,
       "latitude":"51.45842245",
       "longitude":"22.61209358",
       "name_locative":"\u015awinouj\u015bciu"
    },
    {
       "id":163,
       "name":"Kamionka",
       "unique_name":"kamionka",
       "county_id":53,
       "voivodeship_id":3,
       "latitude":"51.10550320",
       "longitude":"21.88156920",
       "name_locative":"\u015awinouj\u015bciu"
    },
    {
       "id":164,
       "name":"Kock",
       "unique_name":"kock",
       "county_id":53,
       "voivodeship_id":3,
       "latitude":"51.63839170",
       "longitude":"22.44781580",
       "name_locative":"\u015awinouj\u015bciu"
    },
    {
       "id":165,
       "name":"Ostr\u00f3w Lubelski",
       "unique_name":"ostrow-lubelski",
       "county_id":53,
       "voivodeship_id":3,
       "latitude":"51.49711970",
       "longitude":"22.85546830",
       "name_locative":"\u015awinouj\u015bciu"
    },
    {
       "id":166,
       "name":"Be\u0142\u017cyce",
       "unique_name":"belzyce",
       "county_id":54,
       "voivodeship_id":3,
       "latitude":"51.17506300",
       "longitude":"22.27499950",
       "name_locative":"\u015awinouj\u015bciu"
    },
    {
       "id":167,
       "name":"Bychawa",
       "unique_name":"bychawa",
       "county_id":54,
       "voivodeship_id":3,
       "latitude":"51.01522250",
       "longitude":"22.53453500",
       "name_locative":"\u015awinouj\u015bciu"
    },
    {
       "id":168,
       "name":"\u0141\u0119czna",
       "unique_name":"leczna",
       "county_id":55,
       "voivodeship_id":3,
       "latitude":"51.30029410",
       "longitude":"22.88676600",
       "name_locative":"\u015awinouj\u015bciu"
    },
    {
       "id":169,
       "name":"\u0141uk\u00f3w",
       "unique_name":"lukow",
       "county_id":56,
       "voivodeship_id":3,
       "latitude":"51.92506405",
       "longitude":"22.37273044",
       "name_locative":"\u015awinouj\u015bciu"
    },
    {
       "id":170,
       "name":"Stoczek \u0141ukowski",
       "unique_name":"stoczek-lukowski",
       "county_id":56,
       "voivodeship_id":3,
       "latitude":"51.95679010",
       "longitude":"21.96159359",
       "name_locative":"\u015awinouj\u015bciu"
    },
    {
       "id":171,
       "name":"J\u00f3zef\u00f3w nad Wis\u0142\u0105",
       "unique_name":"jozefow-nad-wisla",
       "county_id":57,
       "voivodeship_id":3,
       "latitude":"51.04085180",
       "longitude":"21.82967790",
       "name_locative":"\u015awinouj\u015bciu"
    },
    {
       "id":172,
       "name":"Opole Lubelskie",
       "unique_name":"opole-lubelskie",
       "county_id":57,
       "voivodeship_id":3,
       "latitude":"51.14753650",
       "longitude":"21.96641520",
       "name_locative":"\u015awinouj\u015bciu"
    },
    {
       "id":173,
       "name":"Poniatowa",
       "unique_name":"poniatowa",
       "county_id":57,
       "voivodeship_id":3,
       "latitude":"51.19298000",
       "longitude":"22.06505000",
       "name_locative":"\u015awinouj\u015bciu"
    },
    {
       "id":174,
       "name":"Parczew",
       "unique_name":"parczew",
       "county_id":58,
       "voivodeship_id":3,
       "latitude":"51.63900000",
       "longitude":"22.90000000",
       "name_locative":"\u015awinouj\u015bciu"
    },
    {
       "id":175,
       "name":"Pu\u0142awy",
       "unique_name":"pulawy",
       "county_id":59,
       "voivodeship_id":3,
       "latitude":"51.42625980",
       "longitude":"21.98530140",
       "name_locative":"\u015awinouj\u015bciu"
    },
    {
       "id":176,
       "name":"Kazimierz Dolny",
       "unique_name":"kazimierz-dolny",
       "county_id":59,
       "voivodeship_id":3,
       "latitude":"51.32200580",
       "longitude":"21.94737200",
       "name_locative":"\u015awinouj\u015bciu"
    },
    {
       "id":177,
       "name":"Na\u0142\u0119cz\u00f3w",
       "unique_name":"naleczow",
       "county_id":59,
       "voivodeship_id":3,
       "latitude":"51.28760640",
       "longitude":"22.21479200",
       "name_locative":"\u015awinouj\u015bciu"
    },
    {
       "id":178,
       "name":"Radzy\u0144 Podlaski",
       "unique_name":"radzyn-podlaski",
       "county_id":60,
       "voivodeship_id":3,
       "latitude":"51.77566625",
       "longitude":"22.62494672",
       "name_locative":"\u015awinouj\u015bciu"
    },
    {
       "id":179,
       "name":"D\u0119blin",
       "unique_name":"deblin",
       "county_id":61,
       "voivodeship_id":3,
       "latitude":"51.56723175",
       "longitude":"21.85624404",
       "name_locative":"\u015awinouj\u015bciu"
    },
    {
       "id":180,
       "name":"Ryki",
       "unique_name":"ryki",
       "county_id":61,
       "voivodeship_id":3,
       "latitude":"51.62669680",
       "longitude":"21.93569600",
       "name_locative":"\u015awinouj\u015bciu"
    },
    {
       "id":181,
       "name":"\u015awidnik",
       "unique_name":"swidnik",
       "county_id":62,
       "voivodeship_id":3,
       "latitude":"51.21649340",
       "longitude":"22.69095582",
       "name_locative":"\u015awinouj\u015bciu"
    },
    {
       "id":182,
       "name":"Piaski",
       "unique_name":"piaski",
       "county_id":62,
       "voivodeship_id":3,
       "latitude":"51.13781150",
       "longitude":"22.84752250",
       "name_locative":"\u015awinouj\u015bciu"
    },
    {
       "id":183,
       "name":"Tomasz\u00f3w Lubelski",
       "unique_name":"tomaszow-lubelski",
       "county_id":63,
       "voivodeship_id":3,
       "latitude":"50.44792295",
       "longitude":"23.42919536",
       "name_locative":"\u015awinouj\u015bciu"
    },
    {
       "id":184,
       "name":"Lubycza Kr\u00f3lewska",
       "unique_name":"lubycza-krolewska",
       "county_id":63,
       "voivodeship_id":3,
       "latitude":"50.34116120",
       "longitude":"23.51965640",
       "name_locative":"\u015awinouj\u015bciu"
    },
    {
       "id":185,
       "name":"\u0141aszcz\u00f3w",
       "unique_name":"laszczow",
       "county_id":63,
       "voivodeship_id":3,
       "latitude":"50.53261500",
       "longitude":"23.72639290",
       "name_locative":"\u015awinouj\u015bciu"
    },
    {
       "id":186,
       "name":"Tyszowce",
       "unique_name":"tyszowce",
       "county_id":63,
       "voivodeship_id":3,
       "latitude":"50.61720080",
       "longitude":"23.69821720",
       "name_locative":"\u015awinouj\u015bciu"
    },
    {
       "id":187,
       "name":"W\u0142odawa",
       "unique_name":"wlodawa",
       "county_id":64,
       "voivodeship_id":3,
       "latitude":"51.54154425",
       "longitude":"23.52880188",
       "name_locative":"\u015awinouj\u015bciu"
    },
    {
       "id":188,
       "name":"Krasnobr\u00f3d",
       "unique_name":"krasnobrod",
       "county_id":65,
       "voivodeship_id":3,
       "latitude":"50.54600460",
       "longitude":"23.21155930",
       "name_locative":"\u015awinouj\u015bciu"
    },
    {
       "id":189,
       "name":"Szczebrzeszyn",
       "unique_name":"szczebrzeszyn",
       "county_id":65,
       "voivodeship_id":3,
       "latitude":"50.69469720",
       "longitude":"22.97867540",
       "name_locative":"\u015awinouj\u015bciu"
    },
    {
       "id":190,
       "name":"Zwierzyniec",
       "unique_name":"zwierzyniec",
       "county_id":65,
       "voivodeship_id":3,
       "latitude":"50.61458780",
       "longitude":"22.97063170",
       "name_locative":"\u015awinouj\u015bciu"
    },
    {
       "id":191,
       "name":"Bia\u0142a Podlaska",
       "unique_name":"biala-podlaska",
       "county_id":315,
       "voivodeship_id":3,
       "latitude":"52.02970065",
       "longitude":"23.14970244",
       "name_locative":"\u015awinouj\u015bciu"
    },
    {
       "id":192,
       "name":"Che\u0142m",
       "unique_name":"chelm",
       "county_id":315,
       "voivodeship_id":3,
       "latitude":"51.13558825",
       "longitude":"23.49393695",
       "name_locative":"\u015awinouj\u015bciu"
    },
    {
       "id":193,
       "name":"Lublin",
       "unique_name":"lublin",
       "county_id":315,
       "voivodeship_id":3,
       "latitude":"51.21819450",
       "longitude":"22.55467757",
       "name_locative":"\u015awinouj\u015bciu"
    },
    {
       "id":194,
       "name":"Zamo\u015b\u0107",
       "unique_name":"zamosc",
       "county_id":315,
       "voivodeship_id":3,
       "latitude":"50.72127300",
       "longitude":"23.25958870",
       "name_locative":"\u015awinouj\u015bciu"
    },
    {
       "id":195,
       "name":"Kostrzyn nad Odr\u0105",
       "unique_name":"kostrzyn-nad-odra",
       "county_id":66,
       "voivodeship_id":4,
       "latitude":"52.61626975",
       "longitude":"14.62794770",
       "name_locative":"\u015awinouj\u015bciu"
    },
    {
       "id":196,
       "name":"Witnica",
       "unique_name":"witnica",
       "county_id":66,
       "voivodeship_id":4,
       "latitude":"52.67293990",
       "longitude":"14.89721210",
       "name_locative":"\u015awinouj\u015bciu"
    },
    {
       "id":197,
       "name":"Gubin",
       "unique_name":"gubin",
       "county_id":67,
       "voivodeship_id":4,
       "latitude":"51.95734105",
       "longitude":"14.73704256",
       "name_locative":"\u015awinouj\u015bciu"
    },
    {
       "id":198,
       "name":"Krosno Odrza\u0144skie",
       "unique_name":"krosno-odrzanskie",
       "county_id":67,
       "voivodeship_id":4,
       "latitude":"52.05363610",
       "longitude":"15.09802580",
       "name_locative":"\u015awinouj\u015bciu"
    },
    {
       "id":199,
       "name":"Mi\u0119dzyrzecz",
       "unique_name":"miedzyrzecz",
       "county_id":68,
       "voivodeship_id":4,
       "latitude":"52.44482610",
       "longitude":"15.57863700",
       "name_locative":"\u015awinouj\u015bciu"
    },
    {
       "id":200,
       "name":"Skwierzyna",
       "unique_name":"skwierzyna",
       "county_id":68,
       "voivodeship_id":4,
       "latitude":"52.59674830",
       "longitude":"15.50109580",
       "name_locative":"\u015awinouj\u015bciu"
    },
    {
       "id":201,
       "name":"Trzciel",
       "unique_name":"trzciel",
       "county_id":68,
       "voivodeship_id":4,
       "latitude":"52.36516600",
       "longitude":"15.87321300",
       "name_locative":"\u015awinouj\u015bciu"
    },
    {
       "id":202,
       "name":"Nowa S\u00f3l",
       "unique_name":"nowa-sol",
       "county_id":69,
       "voivodeship_id":4,
       "latitude":"51.80334310",
       "longitude":"15.70623805",
       "name_locative":"\u015awinouj\u015bciu"
    },
    {
       "id":203,
       "name":"Bytom Odrza\u0144ski",
       "unique_name":"bytom-odrzanski",
       "county_id":69,
       "voivodeship_id":4,
       "latitude":"51.73082670",
       "longitude":"15.82691800",
       "name_locative":"\u015awinouj\u015bciu"
    },
    {
       "id":204,
       "name":"Ko\u017cuch\u00f3w",
       "unique_name":"kozuchow",
       "county_id":69,
       "voivodeship_id":4,
       "latitude":"51.74545920",
       "longitude":"15.59445970",
       "name_locative":"\u015awinouj\u015bciu"
    },
    {
       "id":205,
       "name":"Nowe Miasteczko",
       "unique_name":"nowe-miasteczko",
       "county_id":69,
       "voivodeship_id":4,
       "latitude":"51.69081030",
       "longitude":"15.73119770",
       "name_locative":"\u015awinouj\u015bciu"
    },
    {
       "id":206,
       "name":"Oty\u0144",
       "unique_name":"otyn",
       "county_id":69,
       "voivodeship_id":4,
       "latitude":"51.84732130",
       "longitude":"15.71040000",
       "name_locative":"\u015awinouj\u015bciu"
    },
    {
       "id":207,
       "name":"Cybinka",
       "unique_name":"cybinka",
       "county_id":70,
       "voivodeship_id":4,
       "latitude":"52.19402930",
       "longitude":"14.79688410",
       "name_locative":"\u015awinouj\u015bciu"
    },
    {
       "id":208,
       "name":"O\u015bno Lubuskie",
       "unique_name":"osno-lubuskie",
       "county_id":70,
       "voivodeship_id":4,
       "latitude":"52.45513200",
       "longitude":"14.86820030",
       "name_locative":"\u015awinouj\u015bciu"
    },
    {
       "id":209,
       "name":"Rzepin",
       "unique_name":"rzepin",
       "county_id":70,
       "voivodeship_id":4,
       "latitude":"52.34432000",
       "longitude":"14.83829020",
       "name_locative":"\u015awinouj\u015bciu"
    },
    {
       "id":210,
       "name":"S\u0142ubice",
       "unique_name":"slubice",
       "county_id":70,
       "voivodeship_id":4,
       "latitude":"52.35574810",
       "longitude":"14.56623670",
       "name_locative":"\u015awinouj\u015bciu"
    },
    {
       "id":211,
       "name":"Dobiegniew",
       "unique_name":"dobiegniew",
       "county_id":71,
       "voivodeship_id":4,
       "latitude":"52.96677490",
       "longitude":"15.75480550",
       "name_locative":"\u015awinouj\u015bciu"
    },
    {
       "id":212,
       "name":"Drezdenko",
       "unique_name":"drezdenko",
       "county_id":71,
       "voivodeship_id":4,
       "latitude":"52.83966420",
       "longitude":"15.83230830",
       "name_locative":"\u015awinouj\u015bciu"
    },
    {
       "id":213,
       "name":"Strzelce Kraje\u0144skie",
       "unique_name":"strzelce-krajenskie",
       "county_id":71,
       "voivodeship_id":4,
       "latitude":"52.87852550",
       "longitude":"15.53259250",
       "name_locative":"\u015awinouj\u015bciu"
    },
    {
       "id":214,
       "name":"Lubniewice",
       "unique_name":"lubniewice",
       "county_id":72,
       "voivodeship_id":4,
       "latitude":"52.51195940",
       "longitude":"15.24410030",
       "name_locative":"\u015awinouj\u015bciu"
    },
    {
       "id":215,
       "name":"Sul\u0119cin",
       "unique_name":"sulecin",
       "county_id":72,
       "voivodeship_id":4,
       "latitude":"52.44137680",
       "longitude":"15.11615010",
       "name_locative":"\u015awinouj\u015bciu"
    },
    {
       "id":216,
       "name":"Torzym",
       "unique_name":"torzym",
       "county_id":72,
       "voivodeship_id":4,
       "latitude":"52.31385860",
       "longitude":"15.08282790",
       "name_locative":"\u015awinouj\u015bciu"
    },
    {
       "id":217,
       "name":"\u015awiebodzin",
       "unique_name":"swiebodzin",
       "county_id":73,
       "voivodeship_id":4,
       "latitude":"52.24983570",
       "longitude":"15.53249730",
       "name_locative":"\u015awinouj\u015bciu"
    },
    {
       "id":218,
       "name":"Zb\u0105szynek",
       "unique_name":"zbaszynek",
       "county_id":73,
       "voivodeship_id":4,
       "latitude":"52.24350020",
       "longitude":"15.81390470",
       "name_locative":"\u015awinouj\u015bciu"
    },
    {
       "id":219,
       "name":"Babimost",
       "unique_name":"babimost",
       "county_id":74,
       "voivodeship_id":4,
       "latitude":"52.16531200",
       "longitude":"15.82851750",
       "name_locative":"\u015awinouj\u015bciu"
    },
    {
       "id":220,
       "name":"Czerwie\u0144sk",
       "unique_name":"czerwiensk",
       "county_id":74,
       "voivodeship_id":4,
       "latitude":"52.01305850",
       "longitude":"15.42114630",
       "name_locative":"\u015awinouj\u015bciu"
    },
    {
       "id":221,
       "name":"Kargowa",
       "unique_name":"kargowa",
       "county_id":74,
       "voivodeship_id":4,
       "latitude":"52.07192250",
       "longitude":"15.86480440",
       "name_locative":"\u015awinouj\u015bciu"
    },
    {
       "id":222,
       "name":"Nowogr\u00f3d Bobrza\u0144ski",
       "unique_name":"nowogrod-bobrzanski",
       "county_id":74,
       "voivodeship_id":4,
       "latitude":"51.79864740",
       "longitude":"15.23650320",
       "name_locative":"\u015awinouj\u015bciu"
    },
    {
       "id":223,
       "name":"Sulech\u00f3w",
       "unique_name":"sulechow",
       "county_id":74,
       "voivodeship_id":4,
       "latitude":"52.08547820",
       "longitude":"15.62590910",
       "name_locative":"\u015awinouj\u015bciu"
    },
    {
       "id":224,
       "name":"Gozdnica",
       "unique_name":"gozdnica",
       "county_id":75,
       "voivodeship_id":4,
       "latitude":"51.45355275",
       "longitude":"15.08160015",
       "name_locative":"\u015awinouj\u015bciu"
    },
    {
       "id":225,
       "name":"\u017baga\u0144",
       "unique_name":"zagan",
       "county_id":75,
       "voivodeship_id":4,
       "latitude":"51.61532315",
       "longitude":"15.30078060",
       "name_locative":"\u015awinouj\u015bciu"
    },
    {
       "id":226,
       "name":"I\u0142owa",
       "unique_name":"ilowa",
       "county_id":75,
       "voivodeship_id":4,
       "latitude":"51.50068280",
       "longitude":"15.19845990",
       "name_locative":"\u015awinouj\u015bciu"
    },
    {
       "id":227,
       "name":"Ma\u0142omice",
       "unique_name":"malomice",
       "county_id":75,
       "voivodeship_id":4,
       "latitude":"51.55500020",
       "longitude":"15.44729080",
       "name_locative":"\u015awinouj\u015bciu"
    },
    {
       "id":228,
       "name":"Szprotawa",
       "unique_name":"szprotawa",
       "county_id":75,
       "voivodeship_id":4,
       "latitude":"51.56507140",
       "longitude":"15.53675840",
       "name_locative":"\u015awinouj\u015bciu"
    },
    {
       "id":229,
       "name":"\u0141\u0119knica",
       "unique_name":"leknica",
       "county_id":76,
       "voivodeship_id":4,
       "latitude":"51.54739610",
       "longitude":"14.75404758",
       "name_locative":"\u015awinouj\u015bciu"
    },
    {
       "id":230,
       "name":"\u017bary",
       "unique_name":"zary",
       "county_id":76,
       "voivodeship_id":4,
       "latitude":"51.62443815",
       "longitude":"15.14872467",
       "name_locative":"\u015awinouj\u015bciu"
    },
    {
       "id":231,
       "name":"Jasie\u0144",
       "unique_name":"jasien",
       "county_id":76,
       "voivodeship_id":4,
       "latitude":"51.75154420",
       "longitude":"15.01233510",
       "name_locative":"\u015awinouj\u015bciu"
    },
    {
       "id":232,
       "name":"Lubsko",
       "unique_name":"lubsko",
       "county_id":76,
       "voivodeship_id":4,
       "latitude":"51.78819020",
       "longitude":"14.97212660",
       "name_locative":"\u015awinouj\u015bciu"
    },
    {
       "id":233,
       "name":"S\u0142awa",
       "unique_name":"slawa",
       "county_id":77,
       "voivodeship_id":4,
       "latitude":"51.88070010",
       "longitude":"16.07024990",
       "name_locative":"\u015awinouj\u015bciu"
    },
    {
       "id":234,
       "name":"Szlichtyngowa",
       "unique_name":"szlichtyngowa",
       "county_id":77,
       "voivodeship_id":4,
       "latitude":"51.71407480",
       "longitude":"16.24459890",
       "name_locative":"\u015awinouj\u015bciu"
    },
    {
       "id":235,
       "name":"Wschowa",
       "unique_name":"wschowa",
       "county_id":77,
       "voivodeship_id":4,
       "latitude":"51.80383540",
       "longitude":"16.31727710",
       "name_locative":"\u015awinouj\u015bciu"
    },
    {
       "id":236,
       "name":"Gorz\u00f3w Wielkopolski",
       "unique_name":"gorzow-wielkopolski",
       "county_id":315,
       "voivodeship_id":4,
       "latitude":"52.73057555",
       "longitude":"15.21075532",
       "name_locative":"\u015awinouj\u015bciu"
    },
    {
       "id":237,
       "name":"Zielona G\u00f3ra",
       "unique_name":"zielona-gora",
       "county_id":315,
       "voivodeship_id":4,
       "latitude":"51.93837770",
       "longitude":"15.50504080",
       "name_locative":"\u015awinouj\u015bciu"
    },
    {
       "id":238,
       "name":"Be\u0142chat\u00f3w",
       "unique_name":"belchatow",
       "county_id":78,
       "voivodeship_id":5,
       "latitude":"51.35467735",
       "longitude":"19.37685732",
       "name_locative":"\u015awinouj\u015bciu"
    },
    {
       "id":239,
       "name":"Zel\u00f3w",
       "unique_name":"zelow",
       "county_id":78,
       "voivodeship_id":5,
       "latitude":"51.46527720",
       "longitude":"19.21849470",
       "name_locative":"\u015awinouj\u015bciu"
    },
    {
       "id":240,
       "name":"Kutno",
       "unique_name":"kutno",
       "county_id":79,
       "voivodeship_id":5,
       "latitude":"52.22200210",
       "longitude":"19.38759506",
       "name_locative":"\u015awinouj\u015bciu"
    },
    {
       "id":241,
       "name":"Kro\u015bniewice",
       "unique_name":"krosniewice",
       "county_id":79,
       "voivodeship_id":5,
       "latitude":"52.25606390",
       "longitude":"19.16893260",
       "name_locative":"\u015awinouj\u015bciu"
    },
    {
       "id":242,
       "name":"\u017bychlin",
       "unique_name":"zychlin",
       "county_id":79,
       "voivodeship_id":5,
       "latitude":"52.24400880",
       "longitude":"19.62609320",
       "name_locative":"\u015awinouj\u015bciu"
    },
    {
       "id":243,
       "name":"\u0141ask",
       "unique_name":"lask",
       "county_id":80,
       "voivodeship_id":5,
       "latitude":"51.59299470",
       "longitude":"19.13347840",
       "name_locative":"\u015awinouj\u015bciu"
    },
    {
       "id":244,
       "name":"\u0141\u0119czyca",
       "unique_name":"leczyca",
       "county_id":81,
       "voivodeship_id":5,
       "latitude":"52.05450620",
       "longitude":"19.19828880",
       "name_locative":"\u015awinouj\u015bciu"
    },
    {
       "id":245,
       "name":"Pi\u0105tek",
       "unique_name":"piatek",
       "county_id":81,
       "voivodeship_id":5,
       "latitude":"52.06898830",
       "longitude":"19.47997260",
       "name_locative":"\u015awinouj\u015bciu"
    },
    {
       "id":246,
       "name":"\u0141owicz",
       "unique_name":"lowicz",
       "county_id":82,
       "voivodeship_id":5,
       "latitude":"52.10122590",
       "longitude":"19.94746237",
       "name_locative":"\u015awinouj\u015bciu"
    },
    {
       "id":247,
       "name":"Koluszki",
       "unique_name":"koluszki",
       "county_id":83,
       "voivodeship_id":5,
       "latitude":"51.74449560",
       "longitude":"19.81796600",
       "name_locative":"\u015awinouj\u015bciu"
    },
    {
       "id":248,
       "name":"Rzg\u00f3w",
       "unique_name":"rzgow",
       "county_id":83,
       "voivodeship_id":5,
       "latitude":"51.66264590",
       "longitude":"19.49080760",
       "name_locative":"\u015awinouj\u015bciu"
    },
    {
       "id":249,
       "name":"Tuszyn",
       "unique_name":"tuszyn",
       "county_id":83,
       "voivodeship_id":5,
       "latitude":"51.60565655",
       "longitude":"19.54381570",
       "name_locative":"\u015awinouj\u015bciu"
    },
    {
       "id":250,
       "name":"Drzewica",
       "unique_name":"drzewica",
       "county_id":84,
       "voivodeship_id":5,
       "latitude":"51.45083840",
       "longitude":"20.47736170",
       "name_locative":"\u015awinouj\u015bciu"
    },
    {
       "id":251,
       "name":"Opoczno",
       "unique_name":"opoczno",
       "county_id":84,
       "voivodeship_id":5,
       "latitude":"51.37824390",
       "longitude":"20.29317540",
       "name_locative":"\u015awinouj\u015bciu"
    },
    {
       "id":252,
       "name":"Konstantyn\u00f3w \u0141\u00f3dzki",
       "unique_name":"konstantynow-lodzki",
       "county_id":85,
       "voivodeship_id":5,
       "latitude":"51.75721335",
       "longitude":"19.30824123",
       "name_locative":"\u015awinouj\u015bciu"
    },
    {
       "id":253,
       "name":"Pabianice",
       "unique_name":"pabianice",
       "county_id":85,
       "voivodeship_id":5,
       "latitude":"51.66623120",
       "longitude":"19.35925467",
       "name_locative":"\u015awinouj\u015bciu"
    },
    {
       "id":254,
       "name":"Dzia\u0142oszyn",
       "unique_name":"dzialoszyn",
       "county_id":86,
       "voivodeship_id":5,
       "latitude":"51.11680370",
       "longitude":"18.86516330",
       "name_locative":"\u015awinouj\u015bciu"
    },
    {
       "id":255,
       "name":"Paj\u0119czno",
       "unique_name":"pajeczno",
       "county_id":86,
       "voivodeship_id":5,
       "latitude":"51.14688240",
       "longitude":"18.99569840",
       "name_locative":"\u015awinouj\u015bciu"
    },
    {
       "id":256,
       "name":"Sulej\u00f3w",
       "unique_name":"sulejow",
       "county_id":87,
       "voivodeship_id":5,
       "latitude":"51.35492020",
       "longitude":"19.88908020",
       "name_locative":"\u015awinouj\u015bciu"
    },
    {
       "id":257,
       "name":"Wolb\u00f3rz",
       "unique_name":"wolborz",
       "county_id":87,
       "voivodeship_id":5,
       "latitude":"51.50363110",
       "longitude":"19.83031900",
       "name_locative":"\u015awinouj\u015bciu"
    },
    {
       "id":258,
       "name":"Podd\u0119bice",
       "unique_name":"poddebice",
       "county_id":88,
       "voivodeship_id":5,
       "latitude":"51.89319730",
       "longitude":"18.95173480",
       "name_locative":"\u015awinouj\u015bciu"
    },
    {
       "id":259,
       "name":"Uniej\u00f3w",
       "unique_name":"uniejow",
       "county_id":88,
       "voivodeship_id":5,
       "latitude":"51.97413020",
       "longitude":"18.79324500",
       "name_locative":"\u015awinouj\u015bciu"
    },
    {
       "id":260,
       "name":"Radomsko",
       "unique_name":"radomsko",
       "county_id":89,
       "voivodeship_id":5,
       "latitude":"51.07106100",
       "longitude":"19.44984641",
       "name_locative":"\u015awinouj\u015bciu"
    },
    {
       "id":261,
       "name":"Kamie\u0144sk",
       "unique_name":"kamiensk",
       "county_id":89,
       "voivodeship_id":5,
       "latitude":"51.20417200",
       "longitude":"19.49707140",
       "name_locative":"\u015awinouj\u015bciu"
    },
    {
       "id":262,
       "name":"Przedb\u00f3rz",
       "unique_name":"przedborz",
       "county_id":89,
       "voivodeship_id":5,
       "latitude":"51.08680770",
       "longitude":"19.87444140",
       "name_locative":"\u015awinouj\u015bciu"
    },
    {
       "id":263,
       "name":"Rawa Mazowiecka",
       "unique_name":"rawa-mazowiecka",
       "county_id":90,
       "voivodeship_id":5,
       "latitude":"51.75828590",
       "longitude":"20.25099803",
       "name_locative":"\u015awinouj\u015bciu"
    },
    {
       "id":264,
       "name":"Bia\u0142a Rawska",
       "unique_name":"biala-rawska",
       "county_id":90,
       "voivodeship_id":5,
       "latitude":"51.80759780",
       "longitude":"20.47209420",
       "name_locative":"\u015awinouj\u015bciu"
    },
    {
       "id":265,
       "name":"Sieradz",
       "unique_name":"sieradz",
       "county_id":91,
       "voivodeship_id":5,
       "latitude":"51.60175290",
       "longitude":"18.73990147",
       "name_locative":"\u015awinouj\u015bciu"
    },
    {
       "id":266,
       "name":"B\u0142aszki",
       "unique_name":"blaszki",
       "county_id":91,
       "voivodeship_id":5,
       "latitude":"51.65250130",
       "longitude":"18.43292610",
       "name_locative":"\u015awinouj\u015bciu"
    },
    {
       "id":267,
       "name":"Warta",
       "unique_name":"warta",
       "county_id":91,
       "voivodeship_id":5,
       "latitude":"51.72153310",
       "longitude":"18.64672004",
       "name_locative":"\u015awinouj\u015bciu"
    },
    {
       "id":268,
       "name":"Z\u0142oczew",
       "unique_name":"zloczew",
       "county_id":91,
       "voivodeship_id":5,
       "latitude":"51.41751170",
       "longitude":"18.60590070",
       "name_locative":"\u015awinouj\u015bciu"
    },
    {
       "id":269,
       "name":"Tomasz\u00f3w Mazowiecki",
       "unique_name":"tomaszow-mazowiecki",
       "county_id":93,
       "voivodeship_id":5,
       "latitude":"51.51948650",
       "longitude":"20.03375907",
       "name_locative":"\u015awinouj\u015bciu"
    },
    {
       "id":270,
       "name":"Wielu\u0144",
       "unique_name":"wielun",
       "county_id":94,
       "voivodeship_id":5,
       "latitude":"51.22053450",
       "longitude":"18.57010810",
       "name_locative":"\u015awinouj\u015bciu"
    },
    {
       "id":271,
       "name":"Lutut\u00f3w",
       "unique_name":"lututow",
       "county_id":95,
       "voivodeship_id":5,
       "latitude":"51.37124940",
       "longitude":"18.43460070",
       "name_locative":"\u015awinouj\u015bciu"
    },
    {
       "id":272,
       "name":"Wierusz\u00f3w",
       "unique_name":"wieruszow",
       "county_id":95,
       "voivodeship_id":5,
       "latitude":"51.29516470",
       "longitude":"18.15106230",
       "name_locative":"\u015awinouj\u015bciu"
    },
    {
       "id":273,
       "name":"Zdu\u0144ska Wola",
       "unique_name":"zdunska-wola",
       "county_id":96,
       "voivodeship_id":5,
       "latitude":"51.59491155",
       "longitude":"18.95010868",
       "name_locative":"\u015awinouj\u015bciu"
    },
    {
       "id":274,
       "name":"Szadek",
       "unique_name":"szadek",
       "county_id":96,
       "voivodeship_id":5,
       "latitude":"51.69175000",
       "longitude":"18.97703000",
       "name_locative":"\u015awinouj\u015bciu"
    },
    {
       "id":275,
       "name":"G\u0142owno",
       "unique_name":"glowno",
       "county_id":97,
       "voivodeship_id":5,
       "latitude":"51.96239825",
       "longitude":"19.71166242",
       "name_locative":"\u015awinouj\u015bciu"
    },
    {
       "id":276,
       "name":"Ozork\u00f3w",
       "unique_name":"ozorkow",
       "county_id":97,
       "voivodeship_id":5,
       "latitude":"51.95876540",
       "longitude":"19.28930636",
       "name_locative":"\u015awinouj\u015bciu"
    },
    {
       "id":277,
       "name":"Zgierz",
       "unique_name":"zgierz",
       "county_id":97,
       "voivodeship_id":5,
       "latitude":"51.85552090",
       "longitude":"19.39063483",
       "name_locative":"\u015awinouj\u015bciu"
    },
    {
       "id":278,
       "name":"Aleksandr\u00f3w \u0141\u00f3dzki",
       "unique_name":"aleksandrow-lodzki",
       "county_id":97,
       "voivodeship_id":5,
       "latitude":"51.81965330",
       "longitude":"19.30353750",
       "name_locative":"\u015awinouj\u015bciu"
    },
    {
       "id":279,
       "name":"Stryk\u00f3w",
       "unique_name":"strykow",
       "county_id":97,
       "voivodeship_id":5,
       "latitude":"51.90094470",
       "longitude":"19.60369690",
       "name_locative":"\u015awinouj\u015bciu"
    },
    {
       "id":280,
       "name":"Brzeziny",
       "unique_name":"brzeziny",
       "county_id":98,
       "voivodeship_id":5,
       "latitude":"51.80066075",
       "longitude":"19.74462059",
       "name_locative":"\u015awinouj\u015bciu"
    },
    {
       "id":281,
       "name":"\u0141\u00f3d\u017a",
       "unique_name":"lodz",
       "county_id":315,
       "voivodeship_id":5,
       "latitude":"51.76873230",
       "longitude":"19.45699110",
       "name_locative":"\u015awinouj\u015bciu"
    },
    {
       "id":282,
       "name":"Piotrk\u00f3w Trybunalski",
       "unique_name":"piotrkow-trybunalski",
       "county_id":315,
       "voivodeship_id":5,
       "latitude":"51.41284140",
       "longitude":"19.68880133",
       "name_locative":"\u015awinouj\u015bciu"
    },
    {
       "id":283,
       "name":"Skierniewice",
       "unique_name":"skierniewice",
       "county_id":315,
       "voivodeship_id":5,
       "latitude":"51.95805445",
       "longitude":"20.14487011",
       "name_locative":"\u015awinouj\u015bciu"
    },
    {
       "id":284,
       "name":"Bochnia",
       "unique_name":"bochnia",
       "county_id":99,
       "voivodeship_id":6,
       "latitude":"49.97468425",
       "longitude":"20.42532920",
       "name_locative":"\u015awinouj\u015bciu"
    },
    {
       "id":285,
       "name":"Nowy Wi\u015bnicz",
       "unique_name":"nowy-wisnicz",
       "county_id":99,
       "voivodeship_id":6,
       "latitude":"49.91526670",
       "longitude":"20.46216770",
       "name_locative":"\u015awinouj\u015bciu"
    },
    {
       "id":286,
       "name":"Brzesko",
       "unique_name":"brzesko",
       "county_id":100,
       "voivodeship_id":6,
       "latitude":"49.96783960",
       "longitude":"20.60684960",
       "name_locative":"\u015awinouj\u015bciu"
    },
    {
       "id":287,
       "name":"Czch\u00f3w",
       "unique_name":"czchow",
       "county_id":100,
       "voivodeship_id":6,
       "latitude":"49.83394460",
       "longitude":"20.67314870",
       "name_locative":"\u015awinouj\u015bciu"
    },
    {
       "id":288,
       "name":"Alwernia",
       "unique_name":"alwernia",
       "county_id":101,
       "voivodeship_id":6,
       "latitude":"50.06904340",
       "longitude":"19.53967370",
       "name_locative":"\u015awinouj\u015bciu"
    },
    {
       "id":289,
       "name":"Chrzan\u00f3w",
       "unique_name":"chrzanow",
       "county_id":101,
       "voivodeship_id":6,
       "latitude":"50.14119260",
       "longitude":"19.40285020",
       "name_locative":"\u015awinouj\u015bciu"
    },
    {
       "id":290,
       "name":"Libi\u0105\u017c",
       "unique_name":"libiaz",
       "county_id":101,
       "voivodeship_id":6,
       "latitude":"50.10305160",
       "longitude":"19.31474860",
       "name_locative":"\u015awinouj\u015bciu"
    },
    {
       "id":291,
       "name":"Trzebinia",
       "unique_name":"trzebinia",
       "county_id":101,
       "voivodeship_id":6,
       "latitude":"50.15976860",
       "longitude":"19.47090970",
       "name_locative":"\u015awinouj\u015bciu"
    },
    {
       "id":292,
       "name":"D\u0105browa Tarnowska",
       "unique_name":"dabrowa-tarnowska",
       "county_id":102,
       "voivodeship_id":6,
       "latitude":"50.17434950",
       "longitude":"20.98507070",
       "name_locative":"\u015awinouj\u015bciu"
    },
    {
       "id":293,
       "name":"Szczucin",
       "unique_name":"szczucin",
       "county_id":102,
       "voivodeship_id":6,
       "latitude":"50.30902560",
       "longitude":"21.07516100",
       "name_locative":"\u015awinouj\u015bciu"
    },
    {
       "id":294,
       "name":"Gorlice",
       "unique_name":"gorlice",
       "county_id":103,
       "voivodeship_id":6,
       "latitude":"49.66633230",
       "longitude":"21.16348427",
       "name_locative":"\u015awinouj\u015bciu"
    },
    {
       "id":295,
       "name":"Biecz",
       "unique_name":"biecz",
       "county_id":103,
       "voivodeship_id":6,
       "latitude":"49.73053510",
       "longitude":"21.24942100",
       "name_locative":"\u015awinouj\u015bciu"
    },
    {
       "id":296,
       "name":"Bobowa",
       "unique_name":"bobowa",
       "county_id":103,
       "voivodeship_id":6,
       "latitude":"49.71300280",
       "longitude":"20.95760540",
       "name_locative":"\u015awinouj\u015bciu"
    },
    {
       "id":297,
       "name":"Krzeszowice",
       "unique_name":"krzeszowice",
       "county_id":104,
       "voivodeship_id":6,
       "latitude":"50.13502460",
       "longitude":"19.63201640",
       "name_locative":"\u015awinouj\u015bciu"
    },
    {
       "id":298,
       "name":"Ska\u0142a",
       "unique_name":"skala",
       "county_id":104,
       "voivodeship_id":6,
       "latitude":"50.23037690",
       "longitude":"19.85353700",
       "name_locative":"\u015awinouj\u015bciu"
    },
    {
       "id":299,
       "name":"Skawina",
       "unique_name":"skawina",
       "county_id":104,
       "voivodeship_id":6,
       "latitude":"49.97475080",
       "longitude":"19.82657020",
       "name_locative":"\u015awinouj\u015bciu"
    },
    {
       "id":300,
       "name":"S\u0142omniki",
       "unique_name":"slomniki",
       "county_id":104,
       "voivodeship_id":6,
       "latitude":"50.24037390",
       "longitude":"20.08113690",
       "name_locative":"\u015awinouj\u015bciu"
    },
    {
       "id":301,
       "name":"\u015awi\u0105tniki G\u00f3rne",
       "unique_name":"swiatniki-gorne",
       "county_id":104,
       "voivodeship_id":6,
       "latitude":"49.93463650",
       "longitude":"19.95249650",
       "name_locative":"\u015awinouj\u015bciu"
    },
    {
       "id":302,
       "name":"Limanowa",
       "unique_name":"limanowa",
       "county_id":105,
       "voivodeship_id":6,
       "latitude":"49.71499180",
       "longitude":"20.42307422",
       "name_locative":"\u015awinouj\u015bciu"
    },
    {
       "id":303,
       "name":"Mszana Dolna",
       "unique_name":"mszana-dolna",
       "county_id":105,
       "voivodeship_id":6,
       "latitude":"49.68107815",
       "longitude":"20.07649907",
       "name_locative":"\u015awinouj\u015bciu"
    },
    {
       "id":304,
       "name":"Miech\u00f3w",
       "unique_name":"miechow",
       "county_id":106,
       "voivodeship_id":6,
       "latitude":"50.35660160",
       "longitude":"20.02769120",
       "name_locative":"\u015awinouj\u015bciu"
    },
    {
       "id":305,
       "name":"Dobczyce",
       "unique_name":"dobczyce",
       "county_id":107,
       "voivodeship_id":6,
       "latitude":"49.88034320",
       "longitude":"20.09054150",
       "name_locative":"\u015awinouj\u015bciu"
    },
    {
       "id":306,
       "name":"My\u015blenice",
       "unique_name":"myslenice",
       "county_id":107,
       "voivodeship_id":6,
       "latitude":"49.83460800",
       "longitude":"19.93842830",
       "name_locative":"\u015awinouj\u015bciu"
    },
    {
       "id":307,
       "name":"Su\u0142kowice",
       "unique_name":"sulkowice",
       "county_id":107,
       "voivodeship_id":6,
       "latitude":"49.84082650",
       "longitude":"19.80121370",
       "name_locative":"\u015awinouj\u015bciu"
    },
    {
       "id":308,
       "name":"Gryb\u00f3w",
       "unique_name":"grybow",
       "county_id":108,
       "voivodeship_id":6,
       "latitude":"49.61495535",
       "longitude":"20.94882466",
       "name_locative":"\u015awinouj\u015bciu"
    },
    {
       "id":309,
       "name":"Krynica-Zdr\u00f3j",
       "unique_name":"krynica-zdroj",
       "county_id":108,
       "voivodeship_id":6,
       "latitude":"49.42061380",
       "longitude":"20.95941760",
       "name_locative":"\u015awinouj\u015bciu"
    },
    {
       "id":310,
       "name":"Muszyna",
       "unique_name":"muszyna",
       "county_id":108,
       "voivodeship_id":6,
       "latitude":"49.35616840",
       "longitude":"20.89674770",
       "name_locative":"\u015awinouj\u015bciu"
    },
    {
       "id":311,
       "name":"Piwniczna-Zdr\u00f3j",
       "unique_name":"piwniczna-zdroj",
       "county_id":108,
       "voivodeship_id":6,
       "latitude":"49.44064620",
       "longitude":"20.71423030",
       "name_locative":"\u015awinouj\u015bciu"
    },
    {
       "id":312,
       "name":"Stary S\u0105cz",
       "unique_name":"stary-sacz",
       "county_id":108,
       "voivodeship_id":6,
       "latitude":"49.56402680",
       "longitude":"20.63662350",
       "name_locative":"\u015awinouj\u015bciu"
    },
    {
       "id":313,
       "name":"Nowy Targ",
       "unique_name":"nowy-targ",
       "county_id":109,
       "voivodeship_id":6,
       "latitude":"49.48920920",
       "longitude":"20.02634110",
       "name_locative":"\u015awinouj\u015bciu"
    },
    {
       "id":314,
       "name":"Szczawnica",
       "unique_name":"szczawnica",
       "county_id":109,
       "voivodeship_id":6,
       "latitude":"49.42662990",
       "longitude":"20.47614390",
       "name_locative":"\u015awinouj\u015bciu"
    },
    {
       "id":315,
       "name":"Rabka-Zdr\u00f3j",
       "unique_name":"rabka-zdroj",
       "county_id":109,
       "voivodeship_id":6,
       "latitude":"49.60766630",
       "longitude":"19.96225750",
       "name_locative":"\u015awinouj\u015bciu"
    },
    {
       "id":316,
       "name":"Bukowno",
       "unique_name":"bukowno",
       "county_id":110,
       "voivodeship_id":6,
       "latitude":"50.26977760",
       "longitude":"19.46381310",
       "name_locative":"\u015awinouj\u015bciu"
    },
    {
       "id":317,
       "name":"Olkusz",
       "unique_name":"olkusz",
       "county_id":110,
       "voivodeship_id":6,
       "latitude":"50.27881580",
       "longitude":"19.55963070",
       "name_locative":"\u015awinouj\u015bciu"
    },
    {
       "id":318,
       "name":"Wolbrom",
       "unique_name":"wolbrom",
       "county_id":110,
       "voivodeship_id":6,
       "latitude":"50.38483860",
       "longitude":"19.75988440",
       "name_locative":"\u015awinouj\u015bciu"
    },
    {
       "id":319,
       "name":"O\u015bwi\u0119cim",
       "unique_name":"oswiecim",
       "county_id":111,
       "voivodeship_id":6,
       "latitude":"50.03367070",
       "longitude":"19.26007984",
       "name_locative":"\u015awinouj\u015bciu"
    },
    {
       "id":320,
       "name":"Brzeszcze",
       "unique_name":"brzeszcze",
       "county_id":111,
       "voivodeship_id":6,
       "latitude":"49.98190140",
       "longitude":"19.15280650",
       "name_locative":"\u015awinouj\u015bciu"
    },
    {
       "id":321,
       "name":"Che\u0142mek",
       "unique_name":"chelmek",
       "county_id":111,
       "voivodeship_id":6,
       "latitude":"50.10033480",
       "longitude":"19.25425850",
       "name_locative":"\u015awinouj\u015bciu"
    },
    {
       "id":322,
       "name":"K\u0119ty",
       "unique_name":"kety",
       "county_id":111,
       "voivodeship_id":6,
       "latitude":"49.88177230",
       "longitude":"19.23020360",
       "name_locative":"\u015awinouj\u015bciu"
    },
    {
       "id":323,
       "name":"Zator",
       "unique_name":"zator",
       "county_id":111,
       "voivodeship_id":6,
       "latitude":"49.99630530",
       "longitude":"19.43767820",
       "name_locative":"\u015awinouj\u015bciu"
    },
    {
       "id":324,
       "name":"Koszyce",
       "unique_name":"koszyce",
       "county_id":112,
       "voivodeship_id":6,
       "latitude":"50.16698060",
       "longitude":"20.57564590",
       "name_locative":"\u015awinouj\u015bciu"
    },
    {
       "id":325,
       "name":"Nowe Brzesko",
       "unique_name":"nowe-brzesko",
       "county_id":112,
       "voivodeship_id":6,
       "latitude":"50.13228230",
       "longitude":"20.37672030",
       "name_locative":"\u015awinouj\u015bciu"
    },
    {
       "id":326,
       "name":"Proszowice",
       "unique_name":"proszowice",
       "county_id":112,
       "voivodeship_id":6,
       "latitude":"50.19264790",
       "longitude":"20.29175550",
       "name_locative":"\u015awinouj\u015bciu"
    },
    {
       "id":327,
       "name":"Jordan\u00f3w",
       "unique_name":"jordanow",
       "county_id":113,
       "voivodeship_id":6,
       "latitude":"49.64891240",
       "longitude":"19.83834915",
       "name_locative":"\u015awinouj\u015bciu"
    },
    {
       "id":328,
       "name":"Sucha Beskidzka",
       "unique_name":"sucha-beskidzka",
       "county_id":113,
       "voivodeship_id":6,
       "latitude":"49.73231525",
       "longitude":"19.58229896",
       "name_locative":"\u015awinouj\u015bciu"
    },
    {
       "id":329,
       "name":"Mak\u00f3w Podhala\u0144ski",
       "unique_name":"makow-podhalanski",
       "county_id":113,
       "voivodeship_id":6,
       "latitude":"49.72989710",
       "longitude":"19.67688030",
       "name_locative":"\u015awinouj\u015bciu"
    },
    {
       "id":330,
       "name":"Ci\u0119\u017ckowice",
       "unique_name":"ciezkowice",
       "county_id":114,
       "voivodeship_id":6,
       "latitude":"49.78646400",
       "longitude":"20.97375420",
       "name_locative":"\u015awinouj\u015bciu"
    },
    {
       "id":331,
       "name":"Rad\u0142\u00f3w",
       "unique_name":"radlow",
       "county_id":114,
       "voivodeship_id":6,
       "latitude":"50.08308870",
       "longitude":"20.84766170",
       "name_locative":"\u015awinouj\u015bciu"
    },
    {
       "id":332,
       "name":"Ryglice",
       "unique_name":"ryglice",
       "county_id":114,
       "voivodeship_id":6,
       "latitude":"49.87833270",
       "longitude":"21.13803710",
       "name_locative":"\u015awinouj\u015bciu"
    },
    {
       "id":333,
       "name":"Tuch\u00f3w",
       "unique_name":"tuchow",
       "county_id":114,
       "voivodeship_id":6,
       "latitude":"49.89521900",
       "longitude":"21.05383620",
       "name_locative":"\u015awinouj\u015bciu"
    },
    {
       "id":334,
       "name":"Wojnicz",
       "unique_name":"wojnicz",
       "county_id":114,
       "voivodeship_id":6,
       "latitude":"49.95734960",
       "longitude":"20.83640480",
       "name_locative":"\u015awinouj\u015bciu"
    },
    {
       "id":335,
       "name":"Zakliczyn",
       "unique_name":"zakliczyn",
       "county_id":114,
       "voivodeship_id":6,
       "latitude":"49.85643520",
       "longitude":"20.80866520",
       "name_locative":"\u015awinouj\u015bciu"
    },
    {
       "id":336,
       "name":"\u017babno",
       "unique_name":"zabno",
       "county_id":114,
       "voivodeship_id":6,
       "latitude":"50.13351550",
       "longitude":"20.88592570",
       "name_locative":"\u015awinouj\u015bciu"
    },
    {
       "id":337,
       "name":"Zakopane",
       "unique_name":"zakopane",
       "county_id":115,
       "voivodeship_id":6,
       "latitude":"49.27579340",
       "longitude":"19.96928107",
       "name_locative":"\u015awinouj\u015bciu"
    },
    {
       "id":338,
       "name":"Andrych\u00f3w",
       "unique_name":"andrychow",
       "county_id":116,
       "voivodeship_id":6,
       "latitude":"49.85557910",
       "longitude":"19.34367560",
       "name_locative":"\u015awinouj\u015bciu"
    },
    {
       "id":339,
       "name":"Kalwaria Zebrzydowska",
       "unique_name":"kalwaria-zebrzydowska",
       "county_id":116,
       "voivodeship_id":6,
       "latitude":"49.86694820",
       "longitude":"19.67630890",
       "name_locative":"\u015awinouj\u015bciu"
    },
    {
       "id":340,
       "name":"Wadowice",
       "unique_name":"wadowice",
       "county_id":116,
       "voivodeship_id":6,
       "latitude":"49.88344840",
       "longitude":"19.49253450",
       "name_locative":"\u015awinouj\u015bciu"
    },
    {
       "id":341,
       "name":"Niepo\u0142omice",
       "unique_name":"niepolomice",
       "county_id":117,
       "voivodeship_id":6,
       "latitude":"50.03318200",
       "longitude":"20.21680120",
       "name_locative":"\u015awinouj\u015bciu"
    },
    {
       "id":342,
       "name":"Wieliczka",
       "unique_name":"wieliczka",
       "county_id":117,
       "voivodeship_id":6,
       "latitude":"49.98237730",
       "longitude":"20.06021140",
       "name_locative":"\u015awinouj\u015bciu"
    },
    {
       "id":343,
       "name":"Krak\u00f3w",
       "unique_name":"krakow",
       "county_id":315,
       "voivodeship_id":6,
       "latitude":"50.04694320",
       "longitude":"19.99715344",
       "name_locative":"\u015awinouj\u015bciu"
    },
    {
       "id":344,
       "name":"Nowy S\u0105cz",
       "unique_name":"nowy-sacz",
       "county_id":315,
       "voivodeship_id":6,
       "latitude":"49.61030395",
       "longitude":"20.71595521",
       "name_locative":"\u015awinouj\u015bciu"
    },
    {
       "id":345,
       "name":"Tarn\u00f3w",
       "unique_name":"tarnow",
       "county_id":315,
       "voivodeship_id":6,
       "latitude":"50.02598830",
       "longitude":"20.96405843",
       "name_locative":"\u015awinouj\u015bciu"
    },
    {
       "id":346,
       "name":"Bia\u0142obrzegi",
       "unique_name":"bialobrzegi",
       "county_id":118,
       "voivodeship_id":7,
       "latitude":"51.64823050",
       "longitude":"20.94974580",
       "name_locative":"\u015awinouj\u015bciu"
    },
    {
       "id":347,
       "name":"Wy\u015bmierzyce",
       "unique_name":"wysmierzyce",
       "county_id":118,
       "voivodeship_id":7,
       "latitude":"51.62510760",
       "longitude":"20.81193310",
       "name_locative":"\u015awinouj\u015bciu"
    },
    {
       "id":348,
       "name":"Ciechan\u00f3w",
       "unique_name":"ciechanow",
       "county_id":119,
       "voivodeship_id":7,
       "latitude":"52.87120440",
       "longitude":"20.60624592",
       "name_locative":"\u015awinouj\u015bciu"
    },
    {
       "id":349,
       "name":"Glinojeck",
       "unique_name":"glinojeck",
       "county_id":119,
       "voivodeship_id":7,
       "latitude":"52.81917400",
       "longitude":"20.28626550",
       "name_locative":"\u015awinouj\u015bciu"
    },
    {
       "id":350,
       "name":"Garwolin",
       "unique_name":"garwolin",
       "county_id":120,
       "voivodeship_id":7,
       "latitude":"51.89580480",
       "longitude":"21.62106475",
       "name_locative":"\u015awinouj\u015bciu"
    },
    {
       "id":351,
       "name":"\u0141askarzew",
       "unique_name":"laskarzew",
       "county_id":120,
       "voivodeship_id":7,
       "latitude":"51.78552615",
       "longitude":"21.60246906",
       "name_locative":"\u015awinouj\u015bciu"
    },
    {
       "id":352,
       "name":"Pilawa",
       "unique_name":"pilawa",
       "county_id":120,
       "voivodeship_id":7,
       "latitude":"51.95954520",
       "longitude":"21.52715240",
       "name_locative":"\u015awinouj\u015bciu"
    },
    {
       "id":353,
       "name":"\u017belech\u00f3w",
       "unique_name":"zelechow",
       "county_id":120,
       "voivodeship_id":7,
       "latitude":"51.80967240",
       "longitude":"21.89550500",
       "name_locative":"\u015awinouj\u015bciu"
    },
    {
       "id":354,
       "name":"Gostynin",
       "unique_name":"gostynin",
       "county_id":121,
       "voivodeship_id":7,
       "latitude":"52.42424530",
       "longitude":"19.46333842",
       "name_locative":"\u015awinouj\u015bciu"
    },
    {
       "id":355,
       "name":"Sanniki",
       "unique_name":"sanniki",
       "county_id":121,
       "voivodeship_id":7,
       "latitude":"52.33089000",
       "longitude":"19.86693000",
       "name_locative":"\u015awinouj\u015bciu"
    },
    {
       "id":356,
       "name":"Milan\u00f3wek",
       "unique_name":"milanowek",
       "county_id":122,
       "voivodeship_id":7,
       "latitude":"52.12374680",
       "longitude":"20.66934426",
       "name_locative":"\u015awinouj\u015bciu"
    },
    {
       "id":357,
       "name":"Podkowa Le\u015bna",
       "unique_name":"podkowa-lesna",
       "county_id":122,
       "voivodeship_id":7,
       "latitude":"52.11131920",
       "longitude":"20.76141131",
       "name_locative":"\u015awinouj\u015bciu"
    },
    {
       "id":358,
       "name":"Grodzisk Mazowiecki",
       "unique_name":"grodzisk-mazowiecki",
       "county_id":122,
       "voivodeship_id":7,
       "latitude":"52.10662230",
       "longitude":"20.63134410",
       "name_locative":"\u015awinouj\u015bciu"
    },
    {
       "id":359,
       "name":"Gr\u00f3jec",
       "unique_name":"grojec",
       "county_id":123,
       "voivodeship_id":7,
       "latitude":"51.86551260",
       "longitude":"20.86750170",
       "name_locative":"\u015awinouj\u015bciu"
    },
    {
       "id":360,
       "name":"Mogielnica",
       "unique_name":"mogielnica",
       "county_id":123,
       "voivodeship_id":7,
       "latitude":"51.69295260",
       "longitude":"20.72337100",
       "name_locative":"\u015awinouj\u015bciu"
    },
    {
       "id":361,
       "name":"Nowe Miasto nad Pilic\u0105",
       "unique_name":"nowe-miasto-nad-pilica",
       "county_id":123,
       "voivodeship_id":7,
       "latitude":"51.61669200",
       "longitude":"20.57961710",
       "name_locative":"\u015awinouj\u015bciu"
    },
    {
       "id":362,
       "name":"Warka",
       "unique_name":"warka",
       "county_id":123,
       "voivodeship_id":7,
       "latitude":"51.78509690",
       "longitude":"21.18338350",
       "name_locative":"\u015awinouj\u015bciu"
    },
    {
       "id":363,
       "name":"Kozienice",
       "unique_name":"kozienice",
       "county_id":124,
       "voivodeship_id":7,
       "latitude":"51.58496780",
       "longitude":"21.54988300",
       "name_locative":"\u015awinouj\u015bciu"
    },
    {
       "id":364,
       "name":"Legionowo",
       "unique_name":"legionowo",
       "county_id":125,
       "voivodeship_id":7,
       "latitude":"52.40483560",
       "longitude":"20.93314657",
       "name_locative":"\u015awinouj\u015bciu"
    },
    {
       "id":365,
       "name":"Serock",
       "unique_name":"serock",
       "county_id":125,
       "voivodeship_id":7,
       "latitude":"52.51351930",
       "longitude":"21.07311620",
       "name_locative":"\u015awinouj\u015bciu"
    },
    {
       "id":366,
       "name":"Lipsko",
       "unique_name":"lipsko",
       "county_id":126,
       "voivodeship_id":7,
       "latitude":"51.15851300",
       "longitude":"21.64900990",
       "name_locative":"\u015awinouj\u015bciu"
    },
    {
       "id":367,
       "name":"Solec nad Wis\u0142\u0105",
       "unique_name":"solec-nad-wisla",
       "county_id":126,
       "voivodeship_id":7,
       "latitude":"51.13499630",
       "longitude":"21.76537600",
       "name_locative":"\u015awinouj\u015bciu"
    },
    {
       "id":368,
       "name":"\u0141osice",
       "unique_name":"losice",
       "county_id":127,
       "voivodeship_id":7,
       "latitude":"52.21151340",
       "longitude":"22.71729400",
       "name_locative":"\u015awinouj\u015bciu"
    },
    {
       "id":369,
       "name":"Mak\u00f3w Mazowiecki",
       "unique_name":"makow-mazowiecki",
       "county_id":128,
       "voivodeship_id":7,
       "latitude":"52.86205440",
       "longitude":"21.09235243",
       "name_locative":"\u015awinouj\u015bciu"
    },
    {
       "id":370,
       "name":"R\u00f3\u017can",
       "unique_name":"rozan",
       "county_id":128,
       "voivodeship_id":7,
       "latitude":"52.88862510",
       "longitude":"21.39650690",
       "name_locative":"\u015awinouj\u015bciu"
    },
    {
       "id":371,
       "name":"Mi\u0144sk Mazowiecki",
       "unique_name":"minsk-mazowiecki",
       "county_id":129,
       "voivodeship_id":7,
       "latitude":"52.17959585",
       "longitude":"21.56945595",
       "name_locative":"\u015awinouj\u015bciu"
    },
    {
       "id":372,
       "name":"Halin\u00f3w",
       "unique_name":"halinow",
       "county_id":129,
       "voivodeship_id":7,
       "latitude":"52.35815860",
       "longitude":"19.47064840",
       "name_locative":"\u015awinouj\u015bciu"
    },
    {
       "id":373,
       "name":"Ka\u0142uszyn",
       "unique_name":"kaluszyn",
       "county_id":129,
       "voivodeship_id":7,
       "latitude":"52.20823440",
       "longitude":"21.81333410",
       "name_locative":"\u015awinouj\u015bciu"
    },
    {
       "id":374,
       "name":"Mrozy",
       "unique_name":"mrozy",
       "county_id":129,
       "voivodeship_id":7,
       "latitude":"52.16555060",
       "longitude":"21.80016820",
       "name_locative":"\u015awinouj\u015bciu"
    },
    {
       "id":375,
       "name":"Sulej\u00f3wek",
       "unique_name":"sulejowek",
       "county_id":129,
       "voivodeship_id":7,
       "latitude":"52.24679920",
       "longitude":"21.28252300",
       "name_locative":"\u015awinouj\u015bciu"
    },
    {
       "id":376,
       "name":"M\u0142awa",
       "unique_name":"mlawa",
       "county_id":130,
       "voivodeship_id":7,
       "latitude":"53.13419145",
       "longitude":"20.36288299",
       "name_locative":"\u015awinouj\u015bciu"
    },
    {
       "id":377,
       "name":"Nowy Dw\u00f3r Mazowiecki",
       "unique_name":"nowy-dwor-mazowiecki",
       "county_id":131,
       "voivodeship_id":7,
       "latitude":"52.43417575",
       "longitude":"20.70611042",
       "name_locative":"\u015awinouj\u015bciu"
    },
    {
       "id":378,
       "name":"Nasielsk",
       "unique_name":"nasielsk",
       "county_id":131,
       "voivodeship_id":7,
       "latitude":"52.58675310",
       "longitude":"20.81301150",
       "name_locative":"\u015awinouj\u015bciu"
    },
    {
       "id":379,
       "name":"Zakroczym",
       "unique_name":"zakroczym",
       "county_id":131,
       "voivodeship_id":7,
       "latitude":"52.43335340",
       "longitude":"20.61167710",
       "name_locative":"\u015awinouj\u015bciu"
    },
    {
       "id":380,
       "name":"Myszyniec",
       "unique_name":"myszyniec",
       "county_id":132,
       "voivodeship_id":7,
       "latitude":"53.38319620",
       "longitude":"21.34207230",
       "name_locative":"\u015awinouj\u015bciu"
    },
    {
       "id":381,
       "name":"Ostr\u00f3w Mazowiecka",
       "unique_name":"ostrow-mazowiecka",
       "county_id":133,
       "voivodeship_id":7,
       "latitude":"52.80710680",
       "longitude":"21.87963793",
       "name_locative":"\u015awinouj\u015bciu"
    },
    {
       "id":382,
       "name":"Brok",
       "unique_name":"brok",
       "county_id":133,
       "voivodeship_id":7,
       "latitude":"52.69892870",
       "longitude":"21.86018150",
       "name_locative":"\u015awinouj\u015bciu"
    },
    {
       "id":383,
       "name":"J\u00f3zef\u00f3w",
       "unique_name":"jozefow-13537",
       "county_id":134,
       "voivodeship_id":7,
       "latitude":"52.12849335",
       "longitude":"21.21556779",
       "name_locative":"\u015awinouj\u015bciu"
    },
    {
       "id":384,
       "name":"Otwock",
       "unique_name":"otwock",
       "county_id":134,
       "voivodeship_id":7,
       "latitude":"52.11616610",
       "longitude":"21.29345896",
       "name_locative":"\u015awinouj\u015bciu"
    },
    {
       "id":385,
       "name":"Karczew",
       "unique_name":"karczew",
       "county_id":134,
       "voivodeship_id":7,
       "latitude":"52.07827950",
       "longitude":"21.25080680",
       "name_locative":"\u015awinouj\u015bciu"
    },